{"type": "FeatureCollection", "features": [{"type":"Feature","geometry":{"type":"Point","coordinates":[-1.893026,52.469624]},"properties":{"cartodb_id":32,"church_name":"Birmingham Vineyard Church","address_street":"174-178 Barford St","address_line2":"0","address_city":"Birmingham","address_state_prov":0,"address_postcode":"B5 7EP","church_denomination":"Vineyard","church_diocese":"Not Applicable","award_qualification":"Registered"}},{"type":"Feature","geometry":{"type":"Point","coordinates":[-1.482593,53.087924]},"properties":{"cartodb_id":187,"church_name":"St Marys","address_street":"Cromford Rd","address_line2":"Crich","address_city":"Matlock","address_state_prov":0,"address_postcode":"DE4 5DJ","church_denomination":"Church of England","church_diocese":"0","award_qualification":"Registered"}},{"type":"Feature","geometry":{"type":"Point","coordinates":[-0.866507,51.477156]},"properties":{"cartodb_id":471,"church_name":"Twyford United Reformed Church","address_street":"Church  Street","address_line2":"Twyford","address_city":"Reading","address_state_prov":0,"address_postcode":"RG10 9DR","church_denomination":"United Reformed Church","church_diocese":"Not Applicable","award_qualification":"Registered"}},{"type":"Feature","geometry":{"type":"Point","coordinates":[-1.831056,53.845731]},"properties":{"cartodb_id":66,"church_name":"Holy Trinity Bingley with St Wilfrid Gilstead","address_street":"Trinity Place","address_line2":"0","address_city":"Bingley","address_state_prov":0,"address_postcode":"BD16 2PR","church_denomination":"Church of England","church_diocese":"Leeds","award_qualification":"Bronze"}},{"type":"Feature","geometry":{"type":"Point","coordinates":[-2.606425,51.462066]},"properties":{"cartodb_id":115,"church_name":"Woodlands Christian Centre","address_street":"Woodlands Christian Centre","address_line2":"Belgrave Road, Clifton","address_city":"Bristol","address_state_prov":0,"address_postcode":"BS8 2AA","church_denomination":"Non-denominational","church_diocese":"0","award_qualification":"Registered"}},{"type":"Feature","geometry":{"type":"Point","coordinates":[-3.206852,51.516536]},"properties":{"cartodb_id":126,"church_name":"The Parish Church of St Thomas, Birchgrove","address_street":"Pantbach Road","address_line2":"Birchgrove","address_city":"Cardiff","address_state_prov":0,"address_postcode":"CF14 1UF","church_denomination":"Church in Wales","church_diocese":"Llandaff","award_qualification":"Registered"}},{"type":"Feature","geometry":{"type":"Point","coordinates":[-2.164465,50.856352]},"properties":{"cartodb_id":200,"church_name":"St Peter and St Paul","address_street":"The Market Place","address_line2":"0","address_city":"Blandford","address_state_prov":0,"address_postcode":"DT11 7AD","church_denomination":"Church of England","church_diocese":"0","award_qualification":"Registered"}},{"type":"Feature","geometry":{"type":"Point","coordinates":[-2.955886,50.736753]},"properties":{"cartodb_id":208,"church_name":"St Peter and St Paul Uplyme","address_street":"Pound Lane","address_line2":"Uplyme","address_city":"Lyme Regis","address_state_prov":0,"address_postcode":"DT7 3TT","church_denomination":"Anglican","church_diocese":"Exeter","award_qualification":"Registered"}},{"type":"Feature","geometry":{"type":"Point","coordinates":[-74.847301,43.038463]},"properties":{"cartodb_id":213,"church_name":"St Peters in the Forest","address_street":"Church of St Peter in the Forest, Woodford New Rd,","address_line2":"Walthamstow","address_city":"London","address_state_prov":0,"address_postcode":"E17","church_denomination":"Church of England","church_diocese":"London","award_qualification":"Registered"}},{"type":"Feature","geometry":{"type":"Point","coordinates":[-0.07921,51.509329]},"properties":{"cartodb_id":219,"church_name":"All Hallows by the Tower","address_street":"Byward Street","address_line2":"0","address_city":"London","address_state_prov":0,"address_postcode":"EC3R 5BJ","church_denomination":"Anglican","church_diocese":"London","award_qualification":"Registered"}},{"type":"Feature","geometry":{"type":"Point","coordinates":[-3.65368,50.791546]},"properties":{"cartodb_id":230,"church_name":"St Swithun","address_street":"Church Lane","address_line2":"0","address_city":"Shobrooke","address_state_prov":0,"address_postcode":"EX172AP","church_denomination":"Church of England","church_diocese":"0","award_qualification":"Registered"}},{"type":"Feature","geometry":{"type":"Point","coordinates":[-123.879063,49.483353]},"properties":{"cartodb_id":312,"church_name":"Ramsey Baptist Church","address_street":"Sulby Edge","address_line2":"Mount Auldyn","address_city":"Ramsey","address_state_prov":0,"address_postcode":"IM8 3PJ","church_denomination":"Baptist","church_diocese":"0","award_qualification":"Registered"}},{"type":"Feature","geometry":{"type":"Point","coordinates":[1.210353,6.184182]},"properties":{"cartodb_id":310,"church_name":"St James Dalby","address_street":"St James Dalby","address_line2":"Main Rd.","address_city":"Dalby","address_state_prov":0,"address_postcode":"IM5 3BU","church_denomination":"Church of England","church_diocese":"Sodor and Man","award_qualification":"Registered"}},{"type":"Feature","geometry":{"type":"Point","coordinates":[0.442186,52.3212]},"properties":{"cartodb_id":317,"church_name":"St Andrew's Freckenham","address_street":"Church Lane","address_line2":"0","address_city":"Freckenham","address_state_prov":0,"address_postcode":"IP28 8HZ","church_denomination":"Church of England","church_diocese":"St Edmundsbury & Ipswich","award_qualification":"Bronze"}},{"type":"Feature","geometry":{"type":"Point","coordinates":[-1.257917,51.75056]},"properties":{"cartodb_id":432,"church_name":"St Aldates","address_street":"40 Pembroke Street","address_line2":"0","address_city":"Oxford","address_state_prov":0,"address_postcode":"OX1 1BP","church_denomination":"Anglican","church_diocese":"Oxford","award_qualification":"Registered"}},{"type":"Feature","geometry":{"type":"Point","coordinates":[-1.122516,51.899934]},"properties":{"cartodb_id":437,"church_name":"The Assumption of the Blessed Virgin Mary, Launton","address_street":"St Mary's Church","address_line2":"Bicester Rd,","address_city":"Launton","address_state_prov":0,"address_postcode":"OX25 6EP","church_denomination":"Church of England","church_diocese":"0","award_qualification":"Registered"}},{"type":"Feature","geometry":{"type":"Point","coordinates":[-0.905351,51.702039]},"properties":{"cartodb_id":442,"church_name":"St Andrews","address_street":"Church Lane","address_line2":"0","address_city":"Chinnor","address_state_prov":0,"address_postcode":"OX39 4PG","church_denomination":"Anglican","church_diocese":"Oxford","award_qualification":"Bronze"}},{"type":"Feature","geometry":{"type":"Point","coordinates":[-4.176041,50.3736]},"properties":{"cartodb_id":450,"church_name":"Devonport Community Baptist Church","address_street":"22 Granby Street","address_line2":"0","address_city":"PLYMOUTH","address_state_prov":0,"address_postcode":"PL1 4BH","church_denomination":"Baptist","church_diocese":"Not Applicable","award_qualification":"Bronze"}},{"type":"Feature","geometry":{"type":"Point","coordinates":[-1.091234,50.799424]},"properties":{"cartodb_id":458,"church_name":"Harbour Church Portsmouth","address_street":"97 Commercial Road","address_line2":"0","address_city":"Portsmouth","address_state_prov":0,"address_postcode":"PO1 1BQ","church_denomination":"Anglican","church_diocese":"Portsmouth","award_qualification":"Registered"}},{"type":"Feature","geometry":{"type":"Point","coordinates":[-0.953318,51.454656]},"properties":{"cartodb_id":469,"church_name":"St John and St Stephen","address_street":"121-147 Orts Road","address_line2":"0","address_city":"Reading","address_state_prov":0,"address_postcode":"RG1 3JN","church_denomination":"Church of England","church_diocese":"0","award_qualification":"Registered"}},{"type":"Feature","geometry":{"type":"Point","coordinates":[-0.092398,51.501694]},"properties":{"cartodb_id":528,"church_name":"St George the Martyr","address_street":"Borough High Street","address_line2":"0","address_city":"London","address_state_prov":0,"address_postcode":"SE1 1JA","church_denomination":"Church of England","church_diocese":"Southwark","award_qualification":"Registered"}},{"type":"Feature","geometry":{"type":"Point","coordinates":[-0.191335,51.496364]},"properties":{"cartodb_id":663,"church_name":"Christ Church Kensington","address_street":"Victoria Road, W8 5RQ","address_line2":"0","address_city":"London","address_state_prov":0,"address_postcode":"w8 5jb","church_denomination":"Church of England","church_diocese":"London","award_qualification":"Registered"}},{"type":"Feature","geometry":{"type":"Point","coordinates":[-0.900827,52.492508]},"properties":{"cartodb_id":346,"church_name":"St Peter and St Paul, Great Bowden","address_street":"Dingley Road","address_line2":"0","address_city":"Great Bowden","address_state_prov":0,"address_postcode":"LE16 7ET","church_denomination":"Church of England","church_diocese":"Leicester","award_qualification":"Registered"}},{"type":"Feature","geometry":{"type":"Point","coordinates":[-2.204303,53.765314]},"properties":{"cartodb_id":62,"church_name":"Mount Zion,  Independent Methodist, Cliviger","address_street":"100 Burnley Road","address_line2":"Walk Mill","address_city":"Cliviger","address_state_prov":0,"address_postcode":"BB10 4SN","church_denomination":"Independent Methodist/Baptist","church_diocese":"Not Applicable","award_qualification":"Registered"}},{"type":"Feature","geometry":{"type":"Point","coordinates":[-2.140197,53.915765]},"properties":{"cartodb_id":64,"church_name":"St Peter's Methodist Church, Earby","address_street":"Riley Street","address_line2":"0","address_city":"Earby","address_state_prov":0,"address_postcode":"BB18 6NX","church_denomination":"Methodist","church_diocese":"0","award_qualification":"Bronze"}},{"type":"Feature","geometry":{"type":"Point","coordinates":[-2.874771,54.711929]},"properties":{"cartodb_id":119,"church_name":"St. Michael's","address_street":"Church Road","address_line2":"Skelton","address_city":"Penrith","address_state_prov":0,"address_postcode":"CA11 9TE","church_denomination":"Church of England","church_diocese":"0","award_qualification":"Registered"}},{"type":"Feature","geometry":{"type":"Point","coordinates":[-3.113655,53.387693]},"properties":{"cartodb_id":129,"church_name":"St Mary's Upton Wirral","address_street":"St Mary's, Upton","address_line2":"Church office The Centre, 127, Saughall Massie Road, Upton","address_city":"Wirral","address_state_prov":0,"address_postcode":"CH49 4la","church_denomination":"Anglican","church_diocese":"0","award_qualification":"Bronze"}},{"type":"Feature","geometry":{"type":"Point","coordinates":[-1.53869,52.268669]},"properties":{"cartodb_id":167,"church_name":"Warwick Gates Community Church","address_street":"Cressida Close","address_line2":"Heathcote","address_city":"Warwick","address_state_prov":0,"address_postcode":"CV34 6DZ","church_denomination":"Church of England","church_diocese":"0","award_qualification":"Registered"}},{"type":"Feature","geometry":{"type":"Point","coordinates":[-1.579275,52.407216]},"properties":{"cartodb_id":176,"church_name":"St Oswald's Church","address_street":"Jardine Crescent","address_line2":"0","address_city":"Coventry","address_state_prov":0,"address_postcode":"CV4 9PL","church_denomination":"Church of England (Anglo-Catholic)","church_diocese":"0","award_qualification":"Registered"}},{"type":"Feature","geometry":{"type":"Point","coordinates":[-0.032219,51.532668]},"properties":{"cartodb_id":215,"church_name":"St Paul and St Marks","address_street":"St Stephens Road","address_line2":"0","address_city":"London","address_state_prov":0,"address_postcode":"E3 5JL","church_denomination":"Church of England","church_diocese":"0","award_qualification":"Registered"}},{"type":"Feature","geometry":{"type":"Point","coordinates":[-4.046885,51.070384]},"properties":{"cartodb_id":233,"church_name":"St John the Baptist","address_street":"South Street","address_line2":"Newport","address_city":"Barnstaple","address_state_prov":0,"address_postcode":"EX32 9DT","church_denomination":"Church of England","church_diocese":"0","award_qualification":"Registered"}},{"type":"Feature","geometry":{"type":"Point","coordinates":[-2.07819,51.900994]},"properties":{"cartodb_id":256,"church_name":"St Matthew's","address_street":"44","address_line2":"Clarence Street","address_city":"Cheltenham","address_state_prov":0,"address_postcode":"GL50 3PL","church_denomination":"Church of England","church_diocese":"0","award_qualification":"Registered"}},{"type":"Feature","geometry":{"type":"Point","coordinates":[-0.350219,51.577066]},"properties":{"cartodb_id":288,"church_name":"St Peter's West Harrow","address_street":"St Peter's Church West Harrow","address_line2":"Sumner Road","address_city":"Harrow","address_state_prov":0,"address_postcode":"HA1 4BX","church_denomination":"Anglican","church_diocese":"0","award_qualification":"Registered"}},{"type":"Feature","geometry":{"type":"Point","coordinates":[103.28329,3.817807]},"properties":{"cartodb_id":313,"church_name":"The Abbey Church Ballasalla","address_street":"Malew Vicarage","address_line2":"Crossag Road","address_city":"Ballasalla","address_state_prov":0,"address_postcode":"IM9 3EF","church_denomination":"Church of England","church_diocese":"Sodor and Man","award_qualification":"Registered"}},{"type":"Feature","geometry":{"type":"Point","coordinates":[-3.221232,54.120806]},"properties":{"cartodb_id":334,"church_name":"Tri ityChurch Centre","address_street":"Warwick Street","address_line2":"0","address_city":"Barrow in Furness","address_state_prov":0,"address_postcode":"LA14 5HT","church_denomination":"Methodist/URC","church_diocese":"Not Applicable","award_qualification":"Registered"}},{"type":"Feature","geometry":{"type":"Point","coordinates":[-1.567794,53.808679]},"properties":{"cartodb_id":369,"church_name":"All Hallows","address_street":"24 Regent Terrace","address_line2":"0","address_city":"Leeds","address_state_prov":0,"address_postcode":"LS6 1NP","church_denomination":"Church of England","church_diocese":"0","award_qualification":"Bronze"}},{"type":"Feature","geometry":{"type":"Point","coordinates":[-0.151774,51.578254]},"properties":{"cartodb_id":395,"church_name":"All Saints, Highgate","address_street":"Talbot Road","address_line2":"0","address_city":"London","address_state_prov":0,"address_postcode":"N6 4QH","church_denomination":"Church of England","church_diocese":"London","award_qualification":"Registered"}},{"type":"Feature","geometry":{"type":"Point","coordinates":[-1.150416,52.949288]},"properties":{"cartodb_id":408,"church_name":"St Nicholas Church","address_street":"79 Maid Marian way","address_line2":"0","address_city":"Nottingham","address_state_prov":0,"address_postcode":"NG1 6AE","church_denomination":"Church of England","church_diocese":"0","award_qualification":"Registered"}},{"type":"Feature","geometry":{"type":"Point","coordinates":[-1.246664,53.100958]},"properties":{"cartodb_id":413,"church_name":"Ashwood Church","address_street":"The Ashwood Centre","address_line2":"Portland Street","address_city":"KIrkby-in-Ashfield","address_state_prov":0,"address_postcode":"NG17 7AB","church_denomination":"Ground Level","church_diocese":"Not Applicable","award_qualification":"Registered"}},{"type":"Feature","geometry":{"type":"Point","coordinates":[1.250771,52.795288]},"properties":{"cartodb_id":424,"church_name":"Aylsham Parish Church","address_street":"The Market Place","address_line2":"0","address_city":"Aylsham","address_state_prov":0,"address_postcode":"NR11 6EH","church_denomination":"Church of England","church_diocese":"0","award_qualification":"Bronze"}},{"type":"Feature","geometry":{"type":"Point","coordinates":[-0.175362,51.237007]},"properties":{"cartodb_id":491,"church_name":"Christ Church","address_street":"Kingscross Lane","address_line2":"South Nutfield","address_city":"Redhill","address_state_prov":0,"address_postcode":"RH1","church_denomination":"Anglican","church_diocese":"0","award_qualification":"Bronze"}},{"type":"Feature","geometry":{"type":"Point","coordinates":[-1.512088,53.357653]},"properties":{"cartodb_id":513,"church_name":"All Saints Ecclesall","address_street":"Ringinglow Road","address_line2":"0","address_city":"Sheffield","address_state_prov":0,"address_postcode":"S11 7PP","church_denomination":"Church of England","church_diocese":"Sheffield","award_qualification":"Registered"}},{"type":"Feature","geometry":{"type":"Point","coordinates":[-1.140014,53.330312]},"properties":{"cartodb_id":522,"church_name":"Christ Church","address_street":"Thievesdale lane","address_line2":"0","address_city":"Worksop","address_state_prov":0,"address_postcode":"S817sb","church_denomination":"Anglican","church_diocese":"Southwell & Nottingham","award_qualification":"Registered"}},{"type":"Feature","geometry":{"type":"Point","coordinates":[-4.097516,51.580786]},"properties":{"cartodb_id":525,"church_name":"Llangenntih St Cenydd","address_street":"St Cenydd's Anglican Church","address_line2":"Clos Sant Cenydd","address_city":"Llangennith","address_state_prov":0,"address_postcode":"SA3 2ER","church_denomination":"Anglican","church_diocese":"Swansea and Brecon","award_qualification":"Registered"}},{"type":"Feature","geometry":{"type":"Point","coordinates":[-2.448251,52.636547]},"properties":{"cartodb_id":625,"church_name":"Madeley Baptist Church","address_street":"11 High St","address_line2":"Madeley","address_city":"Telford","address_state_prov":0,"address_postcode":"TF7 5AQ","church_denomination":"Baptist","church_diocese":"Not Applicable","award_qualification":"Bronze"}},{"type":"Feature","geometry":{"type":"Point","coordinates":[0.901452,51.135775]},"properties":{"cartodb_id":632,"church_name":"St Mary's Willesborough","address_street":"Church Road","address_line2":"Willesborough","address_city":"Ashford","address_state_prov":0,"address_postcode":"TN24 0LB","church_denomination":"C of E","church_diocese":"0","award_qualification":"Registered"}},{"type":"Feature","geometry":{"type":"Point","coordinates":[0.053572,51.177163]},"properties":{"cartodb_id":640,"church_name":"St John's United Reformed Church","address_street":"Marsh Green Road","address_line2":"Marsh Green","address_city":"Edenbridge","address_state_prov":0,"address_postcode":"TN8 5QR","church_denomination":"United Reformed Church","church_diocese":"0","award_qualification":"Silver"}},{"type":"Feature","geometry":{"type":"Point","coordinates":[-1.309098,54.566576]},"properties":{"cartodb_id":647,"church_name":"Stockton Baptist Tabernacle","address_street":"Stockton Baptist Tabernacle","address_line2":"The Square","address_city":"Stockton-on-Tees","address_state_prov":0,"address_postcode":"TS18 1TE","church_denomination":"Baptist","church_diocese":"Not Applicable","award_qualification":"Registered"}},{"type":"Feature","geometry":{"type":"Point","coordinates":[-0.318381,51.510197]},"properties":{"cartodb_id":659,"church_name":"St. John, West Ealing","address_street":"Mattock Lane","address_line2":"West Ealing","address_city":"London","address_state_prov":0,"address_postcode":"W13 9LA","church_denomination":"Anglican","church_diocese":"0","award_qualification":"Registered"}},{"type":"Feature","geometry":{"type":"Point","coordinates":[-76.636912,39.908989]},"properties":{"cartodb_id":676,"church_name":"St Nicholas Church","address_street":"Church Street","address_line2":"Dunnington","address_city":"York","address_state_prov":0,"address_postcode":"YO","church_denomination":"Church of England","church_diocese":"York","award_qualification":"Registered"}},{"type":"Feature","geometry":{"type":"Point","coordinates":[4.446323,50.928047]},"properties":{"cartodb_id":1,"church_name":"All Saints Vevey","address_street":"Ave de la Prairie 40","address_line2":"0","address_city":"Vevey","address_state_prov":0,"address_postcode":"1800","church_denomination":"Anglican","church_diocese":"Not Applicable","award_qualification":"Registered"}},{"type":"Feature","geometry":{"type":"Point","coordinates":[55.278889,-21.046063]},"properties":{"cartodb_id":2,"church_name":"St Paul's Anglican Church Monaco","address_street":"22 avenue de Grande Bretagne","address_line2":"0","address_city":"Monaco","address_state_prov":0,"address_postcode":"98000","church_denomination":"Anglican","church_diocese":"Not Applicable","award_qualification":"Registered"}},{"type":"Feature","geometry":{"type":"Point","coordinates":[-0.348603,51.740537]},"properties":{"cartodb_id":3,"church_name":"St Stephen's with St Julian's church","address_street":"Watling Street","address_line2":"St Albans","address_city":"Hertfordshire","address_state_prov":0,"address_postcode":"AL1 2PX","church_denomination":"Church of England","church_diocese":"St Albans","award_qualification":"Registered"}},{"type":"Feature","geometry":{"type":"Point","coordinates":[-0.329018,51.751203]},"properties":{"cartodb_id":4,"church_name":"Trinity St Albans United reformed Church","address_street":"1 Beaconsfield Road","address_line2":"Beaconsfield Road","address_city":"St Albans","address_state_prov":0,"address_postcode":"AL1 3RD","church_denomination":"United Reformed","church_diocese":"Not Applicable","award_qualification":"Registered"}},{"type":"Feature","geometry":{"type":"Point","coordinates":[-0.335273,51.75051]},"properties":{"cartodb_id":5,"church_name":"Marlborough Road Methodist Church","address_street":"Marlborough Road","address_line2":"0","address_city":"St. Albans","address_state_prov":0,"address_postcode":"AL1 3XG","church_denomination":"Methodist","church_diocese":"Not Applicable","award_qualification":"Registered"}},{"type":"Feature","geometry":{"type":"Point","coordinates":[-0.31916,51.753724]},"properties":{"cartodb_id":6,"church_name":"St Paul's Church","address_street":"Blandford Road","address_line2":"0","address_city":"St Albans","address_state_prov":0,"address_postcode":"AL1 4JP","church_denomination":"Church of England","church_diocese":"0","award_qualification":"Bronze"}},{"type":"Feature","geometry":{"type":"Point","coordinates":[-0.313895,51.744144]},"properties":{"cartodb_id":7,"church_name":"St Luke's","address_street":"Cell Barnes Lane","address_line2":"0","address_city":"St Albans","address_state_prov":0,"address_postcode":"AL1 5QJ","church_denomination":"C of E","church_diocese":"0","award_qualification":"Registered"}},{"type":"Feature","geometry":{"type":"Point","coordinates":[-0.3032,51.747776]},"properties":{"cartodb_id":8,"church_name":"Vineyard St Albans","address_street":"The Vineyard Church","address_line2":"7 Brick Knoll Park","address_city":"St Albans","address_state_prov":0,"address_postcode":"AL1 5UG","church_denomination":"Vineyard","church_diocese":"Not Applicable","award_qualification":"Registered"}},{"type":"Feature","geometry":{"type":"Point","coordinates":[-0.340326,51.752569]},"properties":{"cartodb_id":9,"church_name":"Dagnall St. Baptist Church","address_street":"Upper Dagnall Sttreet","address_line2":"0","address_city":"St Albans","address_state_prov":0,"address_postcode":"AL3 5EE","church_denomination":"Baptist","church_diocese":"0","award_qualification":"Bronze"}},{"type":"Feature","geometry":{"type":"Point","coordinates":[-0.339448,51.769389]},"properties":{"cartodb_id":10,"church_name":"Christ Church St Albans","address_street":"3 High Oaks","address_line2":"0","address_city":"St Albans","address_state_prov":0,"address_postcode":"AL3 6DJ","church_denomination":"Church of England","church_diocese":"0","award_qualification":"Registered"}},{"type":"Feature","geometry":{"type":"Point","coordinates":[-0.272498,51.837842]},"properties":{"cartodb_id":11,"church_name":"Ayot St Lawrence Church/Palladian Church","address_street":"Ayot St Lawrence Church","address_line2":"Church Lane","address_city":"Ayot St Lawrence","address_state_prov":0,"address_postcode":"AL6 9BZ","church_denomination":"Cof E","church_diocese":"0","award_qualification":"Registered"}},{"type":"Feature","geometry":{"type":"Point","coordinates":[-0.211892,51.796922]},"properties":{"cartodb_id":12,"church_name":"Christchurch Baptist","address_street":"110 Parkway","address_line2":"0","address_city":"Welwyn Garden City","address_state_prov":0,"address_postcode":"AL8 6HN","church_denomination":"Baptist","church_diocese":"0","award_qualification":"Bronze"}},{"type":"Feature","geometry":{"type":"Point","coordinates":[-1.895146,52.432119]},"properties":{"cartodb_id":18,"church_name":"All Saints Parish Church","address_street":"All Saints Parish Church","address_line2":"2 Vicarage Rd","address_city":"Kings Heath","address_state_prov":0,"address_postcode":"B14 7RA","church_denomination":"Anglican","church_diocese":"Birmingham","award_qualification":"Bronze"}},{"type":"Feature","geometry":{"type":"Point","coordinates":[-1.865693,52.454034]},"properties":{"cartodb_id":13,"church_name":"St John the Evangelist","address_street":"St John's Church","address_line2":"St John's road","address_city":"Birmingham","address_state_prov":0,"address_postcode":"B11 4RG","church_denomination":"Church of England","church_diocese":"Birmingham","award_qualification":"Bronze"}},{"type":"Feature","geometry":{"type":"Point","coordinates":[-1.87191,52.420994]},"properties":{"cartodb_id":14,"church_name":"Holy Cross Church","address_street":"29 Beauchamp Road","address_line2":"Billesley","address_city":"Birmingham","address_state_prov":0,"address_postcode":"B13 0NS","church_denomination":"Church of England","church_diocese":"Birmingham","award_qualification":"Registered"}},{"type":"Feature","geometry":{"type":"Point","coordinates":[-1.889673,52.450391]},"properties":{"cartodb_id":15,"church_name":"St Anne's, Moseley","address_street":"Park Hill","address_line2":"Moseley","address_city":"Birmingham","address_state_prov":0,"address_postcode":"B13 8DU","church_denomination":"Church of England","church_diocese":"Birmingham","award_qualification":"Registered"}},{"type":"Feature","geometry":{"type":"Point","coordinates":[-1.906731,52.441604]},"properties":{"cartodb_id":16,"church_name":"SELLY OAK METHODIST CHURCH","address_street":"15, Elizabeth Road","address_line2":"Moseley","address_city":"BIRMINGHAM","address_state_prov":0,"address_postcode":"B13 8QH","church_denomination":"METHODIST","church_diocese":"0","award_qualification":"Registered"}},{"type":"Feature","geometry":{"type":"Point","coordinates":[-1.908576,52.417351]},"properties":{"cartodb_id":17,"church_name":"St Bedes Church","address_street":"36","address_line2":"Bryndale Avenue","address_city":"Birmingham","address_state_prov":0,"address_postcode":"B14 6NG","church_denomination":"Church of England","church_diocese":"Birmingham","award_qualification":"Registered"}},{"type":"Feature","geometry":{"type":"Point","coordinates":[-1.952665,52.477798]},"properties":{"cartodb_id":19,"church_name":"St. Germain's","address_street":"189 Portland Road","address_line2":"Edgbaston","address_city":"Birmingham","address_state_prov":0,"address_postcode":"B16 9TD","church_denomination":"Church of England","church_diocese":"Birmingham","award_qualification":"Bronze"}},{"type":"Feature","geometry":{"type":"Point","coordinates":[-1.939668,52.49642]},"properties":{"cartodb_id":20,"church_name":"Wilson Green SDA Church","address_street":"Handsworth New Road","address_line2":"Winson Green","address_city":"Birmingham","address_state_prov":0,"address_postcode":"B18 4PT","church_denomination":"Seventh Day Adventist","church_diocese":"0","award_qualification":"Registered"}},{"type":"Feature","geometry":{"type":"Point","coordinates":[-1.82693,52.428236]},"properties":{"cartodb_id":21,"church_name":"St.Michael Hall Green LEP","address_street":"17 Redstone Farm Rd","address_line2":"Hall Green","address_city":"Birmingham","address_state_prov":0,"address_postcode":"B28 9NU","church_denomination":"Anglician and Methodist","church_diocese":"Birmingham","award_qualification":"Registered"}},{"type":"Feature","geometry":{"type":"Point","coordinates":[-1.931028,52.416728]},"properties":{"cartodb_id":22,"church_name":"Cotteridge Quaker Meeting","address_street":"43a Watford Road","address_line2":"0","address_city":"Birmingham","address_state_prov":0,"address_postcode":"B30 1JB","church_denomination":"Quaker","church_diocese":"0","award_qualification":"Registered"}},{"type":"Feature","geometry":{"type":"Point","coordinates":[-1.937006,52.431484]},"properties":{"cartodb_id":23,"church_name":"Bournville Meeting","address_street":"65 Linden Road`","address_line2":"0","address_city":"Birmingham","address_state_prov":0,"address_postcode":"B30 1JT","church_denomination":"Quaker","church_diocese":"Not Applicable","award_qualification":"Registered"}},{"type":"Feature","geometry":{"type":"Point","coordinates":[-1.933139,52.431131]},"properties":{"cartodb_id":24,"church_name":"St Francis Church, Bournville","address_street":"Sycamore Road","address_line2":"Bournville","address_city":"Birmingham","address_state_prov":0,"address_postcode":"B30 2AA","church_denomination":"Church of England","church_diocese":"Birmingham","award_qualification":"Registered"}},{"type":"Feature","geometry":{"type":"Point","coordinates":[-1.959952,52.397179]},"properties":{"cartodb_id":25,"church_name":"St Anne","address_street":"54A Lilley Lane","address_line2":"West Heath","address_city":"Birmingham","address_state_prov":0,"address_postcode":"B31 3JT","church_denomination":"Church of England","church_diocese":"Birmingham","award_qualification":"Registered"}},{"type":"Feature","geometry":{"type":"Point","coordinates":[-1.97345,52.460913]},"properties":{"cartodb_id":26,"church_name":"St Faith & St Laurence","address_street":"Corner of Croftdown Road & Balden Road","address_line2":"Harborne","address_city":"Birmingham","address_state_prov":0,"address_postcode":"B32 2EJ","church_denomination":"Church Of England","church_diocese":"Birmingham","award_qualification":"Registered"}},{"type":"Feature","geometry":{"type":"Point","coordinates":[-1.782442,52.481986]},"properties":{"cartodb_id":27,"church_name":"St Richard`s","address_street":"Hallmoor Road","address_line2":"Kitts Green","address_city":"Birmingham","address_state_prov":0,"address_postcode":"B33 9QY","church_denomination":"Church of England","church_diocese":"Birmingham","award_qualification":"Registered"}},{"type":"Feature","geometry":{"type":"Point","coordinates":[-1.751702,52.494116]},"properties":{"cartodb_id":28,"church_name":"St Barnabas Kingshurst","address_street":"St Barnabas Church","address_line2":"51 Over Green Drive","address_city":"Birmingham","address_state_prov":0,"address_postcode":"B37 6EY","church_denomination":"Anglican","church_diocese":"Birmingham","award_qualification":"Bronze"}},{"type":"Feature","geometry":{"type":"Point","coordinates":[-1.8984,52.526652]},"properties":{"cartodb_id":29,"church_name":"St John The Evangelist, Perry Barr","address_street":"Church Road","address_line2":"Perry Barr","address_city":"Birmingham","address_state_prov":0,"address_postcode":"B42 2LB","church_denomination":"Church of England","church_diocese":"Birmingham","award_qualification":"Bronze"}},{"type":"Feature","geometry":{"type":"Point","coordinates":[-1.988032,52.360316]},"properties":{"cartodb_id":30,"church_name":"St Andrew's","address_street":"Sandhills Road","address_line2":"Barnt Green","address_city":"Birmingham","address_state_prov":0,"address_postcode":"B45 8NR","church_denomination":"Church of England","church_diocese":"Birmingham","award_qualification":"Registered"}},{"type":"Feature","geometry":{"type":"Point","coordinates":[-1.876201,52.390333]},"properties":{"cartodb_id":31,"church_name":"St Mary's Church Wythall","address_street":"Shawhurst Lane","address_line2":"Hollywood","address_city":"Birmingham","address_state_prov":0,"address_postcode":"B47 5JN","church_denomination":"Anglican","church_diocese":"Birmingham","award_qualification":"Registered"}},{"type":"Feature","geometry":{"type":"Point","coordinates":[-2.022322,52.450881]},"properties":{"cartodb_id":33,"church_name":"St Peter's","address_street":"Hiplands Road","address_line2":"0","address_city":"Halesowen","address_state_prov":0,"address_postcode":"B62 0BH","church_denomination":"Anglican","church_diocese":"0","award_qualification":"Registered"}},{"type":"Feature","geometry":{"type":"Point","coordinates":[-2.051927,52.450584]},"properties":{"cartodb_id":34,"church_name":"Parish Church of St John the Baptist Halesowen","address_street":"High Street","address_line2":"0","address_city":"Halesowen","address_state_prov":0,"address_postcode":"B63 3BB","church_denomination":"Church of England","church_diocese":"Worcester","award_qualification":"Registered"}},{"type":"Feature","geometry":{"type":"Point","coordinates":[-2.086722,52.463212]},"properties":{"cartodb_id":35,"church_name":"St Peter's Cradley","address_street":"Church Road","address_line2":"0","address_city":"Halesowen","address_state_prov":0,"address_postcode":"B632UL","church_denomination":"Church of England","church_diocese":"0","award_qualification":"Registered"}},{"type":"Feature","geometry":{"type":"Point","coordinates":[-1.825325,52.555352]},"properties":{"cartodb_id":36,"church_name":"St Peter's Maney","address_street":"St Peter's Church","address_line2":"Maney Hill Road","address_city":"Sutton Coldfield","address_state_prov":0,"address_postcode":"B72 1JJ","church_denomination":"Church of England","church_diocese":"0","award_qualification":"Bronze"}},{"type":"Feature","geometry":{"type":"Point","coordinates":[-1.839669,52.541087]},"properties":{"cartodb_id":37,"church_name":"St. Michaels","address_street":"St Micheals Church, Church Road","address_line2":"Sutton Coldfield","address_city":"Birmingham","address_state_prov":0,"address_postcode":"B73 5RX","church_denomination":"Church of England","church_diocese":"Birmingham","award_qualification":"Bronze"}},{"type":"Feature","geometry":{"type":"Point","coordinates":[-2.755392,50.733098]},"properties":{"cartodb_id":205,"church_name":"Bridport United Church","address_street":"East Street","address_line2":"0","address_city":"Bridport","address_state_prov":0,"address_postcode":"DT6 3LJ","church_denomination":"Methodist & United Reformed Church LEP","church_diocese":"Not Applicable","award_qualification":"Registered"}},{"type":"Feature","geometry":{"type":"Point","coordinates":[-1.827222,52.560605]},"properties":{"cartodb_id":38,"church_name":"Sutton Coldfield Quaker Meeting House","address_street":"Kenelm Road","address_line2":"0","address_city":"Sutton Coldfield","address_state_prov":0,"address_postcode":"B73 6HD","church_denomination":"Religious Society of Friends (Quakers)","church_diocese":"Not Applicable","award_qualification":"Registered"}},{"type":"Feature","geometry":{"type":"Point","coordinates":[-1.836206,52.548436]},"properties":{"cartodb_id":39,"church_name":"Wylde Green U R C","address_street":"Britwell Road","address_line2":"Sutton coldfield","address_city":"B735SW","address_state_prov":0,"address_postcode":"B735SW","church_denomination":"United Reformed Church","church_diocese":"0","award_qualification":"Bronze"}},{"type":"Feature","geometry":{"type":"Point","coordinates":[-1.871148,52.586794]},"properties":{"cartodb_id":40,"church_name":"Streetly Methodist Church","address_street":"Thornhill Road","address_line2":"Thornhill Road","address_city":"Sutton Coldfield","address_state_prov":0,"address_postcode":"B743EH","church_denomination":"Methodist","church_diocese":"0","award_qualification":"Silver"}},{"type":"Feature","geometry":{"type":"Point","coordinates":[-1.824368,52.588082]},"properties":{"cartodb_id":41,"church_name":"St James Hill","address_street":"Mere Green Road","address_line2":"Four Oaks","address_city":"Sutton Coldfield","address_state_prov":0,"address_postcode":"B75 5BW","church_denomination":"Church of England","church_diocese":"Birmingham","award_qualification":"Registered"}},{"type":"Feature","geometry":{"type":"Point","coordinates":[-1.612629,52.62014]},"properties":{"cartodb_id":42,"church_name":"Polesworth Abbey","address_street":"High Street","address_line2":"Polesworth","address_city":"Tamworth","address_state_prov":0,"address_postcode":"B78 1DU","church_denomination":"C of E","church_diocese":"Not Applicable","award_qualification":"Registered"}},{"type":"Feature","geometry":{"type":"Point","coordinates":[-1.761698,52.443145]},"properties":{"cartodb_id":43,"church_name":"Elmdon Church","address_street":"Elmdon Park","address_line2":"Elmdon","address_city":"Solihull","address_state_prov":0,"address_postcode":"B92 9eJ","church_denomination":"Church of England","church_diocese":"0","award_qualification":"Registered"}},{"type":"Feature","geometry":{"type":"Point","coordinates":[-1.761698,52.443145]},"properties":{"cartodb_id":44,"church_name":"Elmdon Church","address_street":"Church Lane","address_line2":"Elmdon Park","address_city":"Solihull","address_state_prov":0,"address_postcode":"B92 9EJ","church_denomination":"Church of England","church_diocese":"Birmingham","award_qualification":"Registered"}},{"type":"Feature","geometry":{"type":"Point","coordinates":[-1.779616,52.292766]},"properties":{"cartodb_id":45,"church_name":"Henley-in-Arden Methodist Church","address_street":"High Street","address_line2":"0","address_city":"Henley-in-Arden","address_state_prov":0,"address_postcode":"B95 5AU","church_denomination":"Methodist","church_diocese":"Not Applicable","award_qualification":"Registered"}},{"type":"Feature","geometry":{"type":"Point","coordinates":[-1.828263,52.289277]},"properties":{"cartodb_id":46,"church_name":"St Mary's Church","address_street":"Oldberrow Lane","address_line2":"Oldberrow","address_city":"Henley-in-Arden","address_state_prov":0,"address_postcode":"B95 5NU","church_denomination":"Anglican","church_diocese":"Coventry","award_qualification":"Registered"}},{"type":"Feature","geometry":{"type":"Point","coordinates":[-1.94239,52.305939]},"properties":{"cartodb_id":47,"church_name":"Emmanuel Church Redditch","address_street":"6 Evesham Walk","address_line2":"The Ecumenical Centre","address_city":"Redditch","address_state_prov":0,"address_postcode":"B974EX","church_denomination":"Methodist and URC","church_diocese":"0","award_qualification":"Registered"}},{"type":"Feature","geometry":{"type":"Point","coordinates":[-1.922249,52.291948]},"properties":{"cartodb_id":48,"church_name":"St John the Evangelist","address_street":"Greenlands Avenue","address_line2":"Greenlands","address_city":"Redditch","address_state_prov":0,"address_postcode":"B98 7QS","church_denomination":"Church of England","church_diocese":"0","award_qualification":"Registered"}},{"type":"Feature","geometry":{"type":"Point","coordinates":[-2.356711,51.378732]},"properties":{"cartodb_id":49,"church_name":"Manvers Street Baptist Church","address_street":"Manvers Street Baptist Church","address_line2":"0","address_city":"Bath","address_state_prov":0,"address_postcode":"BA1 1JW","church_denomination":"Baptist","church_diocese":"Not Applicable","award_qualification":"Registered"}},{"type":"Feature","geometry":{"type":"Point","coordinates":[-2.358339,51.381155]},"properties":{"cartodb_id":50,"church_name":"Bath Abbey","address_street":"12 Kingston Road","address_line2":"0","address_city":"Bath","address_state_prov":0,"address_postcode":"BA1 1LT","church_denomination":"Church of England","church_diocese":"Bath and Wells","award_qualification":"Registered"}},{"type":"Feature","geometry":{"type":"Point","coordinates":[-2.330209,51.235975]},"properties":{"cartodb_id":51,"church_name":"Frome  Baptish Church","address_street":"61 Upper Whatcombe","address_line2":"0","address_city":"Frome","address_state_prov":0,"address_postcode":"BA11 3SA","church_denomination":"Baptist","church_diocese":"0","award_qualification":"Registered"}},{"type":"Feature","geometry":{"type":"Point","coordinates":[-2.140376,51.173863]},"properties":{"cartodb_id":52,"church_name":"Church of St John the Evangelist","address_street":"The High Street","address_line2":"Sutton Veny","address_city":"Warminster","address_state_prov":0,"address_postcode":"BA12 7AP","church_denomination":"Church of England","church_diocese":"Salisbury","award_qualification":"Bronze"}},{"type":"Feature","geometry":{"type":"Point","coordinates":[-2.223283,51.309691]},"properties":{"cartodb_id":53,"church_name":"Upper Studley Baptist Church","address_street":"187, Frome Road","address_line2":"0","address_city":"Trowbridge","address_state_prov":0,"address_postcode":"Ba14 0DU","church_denomination":"Baptist","church_diocese":"0","award_qualification":"Registered"}},{"type":"Feature","geometry":{"type":"Point","coordinates":[-2.149242,51.345543]},"properties":{"cartodb_id":54,"church_name":"Bethesda Baptist Church","address_street":"Bethesda Baptist Church","address_line2":"Gloucester Road","address_city":"Trowbridge","address_state_prov":0,"address_postcode":"BA14 6NN","church_denomination":"Baptist","church_diocese":"Not Applicable","award_qualification":"Registered"}},{"type":"Feature","geometry":{"type":"Point","coordinates":[-2.206497,51.322455]},"properties":{"cartodb_id":55,"church_name":"ST JAMES","address_street":"CHURCH STREET","address_line2":"0","address_city":"TROWBRIDGE","address_state_prov":0,"address_postcode":"BA14 8RU","church_denomination":"ANGLICAN","church_diocese":"Salisbury","award_qualification":"Bronze"}},{"type":"Feature","geometry":{"type":"Point","coordinates":[-2.248973,51.348556]},"properties":{"cartodb_id":56,"church_name":"Bradford on Avon Quaker Meeting","address_street":"1 Whiteheads Lane","address_line2":"0","address_city":"Bradford on Avon","address_state_prov":0,"address_postcode":"BA15 1JU","church_denomination":"Quaker","church_diocese":"0","award_qualification":"Bronze"}},{"type":"Feature","geometry":{"type":"Point","coordinates":[-2.254534,51.346728]},"properties":{"cartodb_id":57,"church_name":"Holy Trinity","address_street":"Church Street","address_line2":"0","address_city":"Bradford on Avon","address_state_prov":0,"address_postcode":"BA15 1LW","church_denomination":"CofE","church_diocese":"Salisbury","award_qualification":"Registered"}},{"type":"Feature","geometry":{"type":"Point","coordinates":[-2.398915,51.371061]},"properties":{"cartodb_id":58,"church_name":"Horizon and Southdown Methodist","address_street":"The Hollow","address_line2":"0","address_city":"Bath","address_state_prov":0,"address_postcode":"BA2 1NJ","church_denomination":"Methodist","church_diocese":"0","award_qualification":"Bronze"}},{"type":"Feature","geometry":{"type":"Point","coordinates":[-2.357602,51.384367]},"properties":{"cartodb_id":59,"church_name":"Bath Central United Reformed Church","address_street":"Grove Street","address_line2":"0","address_city":"BATH","address_state_prov":0,"address_postcode":"BA2 6PJ","church_denomination":"United Reformed Church","church_diocese":"Not Applicable","award_qualification":"Bronze"}},{"type":"Feature","geometry":{"type":"Point","coordinates":[-2.328296,51.299194]},"properties":{"cartodb_id":60,"church_name":"St Philip and St James","address_street":"Church Street","address_line2":"0","address_city":"Norton St Philip,Bath","address_state_prov":0,"address_postcode":"BA27LY","church_denomination":"Church of England","church_diocese":"Not Applicable","award_qualification":"Registered"}},{"type":"Feature","geometry":{"type":"Point","coordinates":[-2.502224,51.146756]},"properties":{"cartodb_id":61,"church_name":"St. Peter","address_street":"Bruton Road","address_line2":"Evercreech","address_city":"Shepton Mallet","address_state_prov":0,"address_postcode":"BA4 6HY","church_denomination":"Anglican","church_diocese":"0","award_qualification":"Registered"}},{"type":"Feature","geometry":{"type":"Point","coordinates":[-2.291749,53.790219]},"properties":{"cartodb_id":63,"church_name":"Greenbrook Methodist Church","address_street":"Greenbrook Rd","address_line2":"0","address_city":"Burnley","address_state_prov":0,"address_postcode":"BB12 6NZ","church_denomination":"Methodist","church_diocese":"Not Applicable","award_qualification":"Bronze"}},{"type":"Feature","geometry":{"type":"Point","coordinates":[-2.487877,53.837227]},"properties":{"cartodb_id":65,"church_name":"St John the Evangelist","address_street":"Longridge Road,","address_line2":"Hurst Green","address_city":"Lancashire","address_state_prov":0,"address_postcode":"BB7 9QR","church_denomination":"Church of England","church_diocese":"0","award_qualification":"Registered"}},{"type":"Feature","geometry":{"type":"Point","coordinates":[-1.764062,53.85323]},"properties":{"cartodb_id":67,"church_name":"ST. JOHN THE EVANGELIST, daughter churches -St.James's, St. Hugh's","address_street":"HALLCLIFFE","address_line2":"0","address_city":"BAILDON","address_state_prov":0,"address_postcode":"BD17 6ND","church_denomination":"CHURCH OF ENGLAND","church_diocese":"0","award_qualification":"Silver"}},{"type":"Feature","geometry":{"type":"Point","coordinates":[-2.27981,54.071026]},"properties":{"cartodb_id":68,"church_name":"St Johns Methodist Church","address_street":"4 Pen y Ghent View","address_line2":"Church Street","address_city":"Settle","address_state_prov":0,"address_postcode":"Bd24 9Jh","church_denomination":"Methodist Church","church_diocese":"0","award_qualification":"Registered"}},{"type":"Feature","geometry":{"type":"Point","coordinates":[-1.733237,53.797576]},"properties":{"cartodb_id":69,"church_name":"St Clement's Church","address_street":"Barkerend Road","address_line2":"0","address_city":"Bradford","address_state_prov":0,"address_postcode":"BD3  9DF","church_denomination":"Church of England","church_diocese":"Leeds","award_qualification":"Registered"}},{"type":"Feature","geometry":{"type":"Point","coordinates":[-1.939402,50.721699]},"properties":{"cartodb_id":70,"church_name":"St Luke`s Church, Parkstone","address_street":"Wellington Road","address_line2":"Parkstone, Poole","address_city":"Dorset","address_state_prov":0,"address_postcode":"BH14 9LF","church_denomination":"Church of England","church_diocese":"Not Applicable","award_qualification":"Registered"}},{"type":"Feature","geometry":{"type":"Point","coordinates":[-1.975808,50.724005]},"properties":{"cartodb_id":71,"church_name":"SML Poole","address_street":"SML Poole","address_line2":"Longfleet Road","address_city":"Poole","address_state_prov":0,"address_postcode":"BH152LR","church_denomination":"Church of England","church_diocese":"0","award_qualification":"Bronze"}},{"type":"Feature","geometry":{"type":"Point","coordinates":[-2.093474,50.764581]},"properties":{"cartodb_id":72,"church_name":"St Mary the Virgin","address_street":"Coles Hill","address_line2":"Lytchett Matravers","address_city":"Poole","address_state_prov":0,"address_postcode":"BH16 6BS","church_denomination":"Anglican","church_diocese":"0","award_qualification":"Registered"}},{"type":"Feature","geometry":{"type":"Point","coordinates":[-1.998615,50.763872]},"properties":{"cartodb_id":73,"church_name":"Broadstone United Reformed Church","address_street":"1 Higher Blandford Road","address_line2":"0","address_city":"Broadstone","address_state_prov":0,"address_postcode":"BH18 9AB","church_denomination":"United Reformed Church","church_diocese":"Not Applicable","award_qualification":"Registered"}},{"type":"Feature","geometry":{"type":"Point","coordinates":[-1.959759,50.62098]},"properties":{"cartodb_id":74,"church_name":"All Saints', Swanage","address_street":"Ulwell Road","address_line2":"0","address_city":"Swanage","address_state_prov":0,"address_postcode":"BH19 1LL","church_denomination":"Anglican","church_diocese":"Salisbury","award_qualification":"Registered"}},{"type":"Feature","geometry":{"type":"Point","coordinates":[-1.970199,50.608501]},"properties":{"cartodb_id":75,"church_name":"St. Mark's Herston","address_street":"Bell Street","address_line2":"Herston","address_city":"Swanage","address_state_prov":0,"address_postcode":"BH19 2QR","church_denomination":"Church of England","church_diocese":"Salisbury","award_qualification":"Registered"}},{"type":"Feature","geometry":{"type":"Point","coordinates":[-1.980069,50.798024]},"properties":{"cartodb_id":76,"church_name":"St John's Wimborne","address_street":"71 Leigh Road","address_line2":"Wimborne","address_city":"Dorset","address_state_prov":0,"address_postcode":"BH21 1AE","church_denomination":"Anglican","church_diocese":"0","award_qualification":"Registered"}},{"type":"Feature","geometry":{"type":"Point","coordinates":[-1.987263,50.798934]},"properties":{"cartodb_id":77,"church_name":"Wimborne Minster","address_street":"Church House","address_line2":"High Street","address_city":"Wimborne Minster","address_state_prov":0,"address_postcode":"BH21 1HT","church_denomination":"C of E","church_diocese":"0","award_qualification":"Registered"}},{"type":"Feature","geometry":{"type":"Point","coordinates":[-1.951647,50.812899]},"properties":{"cartodb_id":78,"church_name":"All Saints Hampreston & Stapehill","address_street":"Hampreston Village","address_line2":"Hampreston","address_city":"Wimborne","address_state_prov":0,"address_postcode":"BH21 2LX","church_denomination":"Anglican","church_diocese":"Salisbury","award_qualification":"Registered"}},{"type":"Feature","geometry":{"type":"Point","coordinates":[-1.954072,50.786435]},"properties":{"cartodb_id":79,"church_name":"Canford Magna Parish Church","address_street":"Canford Magna Centre","address_line2":"Canford Magna","address_city":"WIMBORNE","address_state_prov":0,"address_postcode":"BH21 3AF","church_denomination":"Church of England","church_diocese":"Not Applicable","award_qualification":"Bronze"}},{"type":"Feature","geometry":{"type":"Point","coordinates":[-2.016769,50.775319]},"properties":{"cartodb_id":80,"church_name":"St Nicholas Church","address_street":"30 Wareham Road","address_line2":"Corfe Mullen","address_city":"Wimborne","address_state_prov":0,"address_postcode":"BH21 3LE","church_denomination":"Church of England","church_diocese":"Salisbury","award_qualification":"Registered"}},{"type":"Feature","geometry":{"type":"Point","coordinates":[-1.889623,50.829996]},"properties":{"cartodb_id":81,"church_name":"St Mary the Virgin WEST MOORS","address_street":"Station Road","address_line2":"West Moors","address_city":"FERNDOWN","address_state_prov":0,"address_postcode":"BH22 0JF","church_denomination":"Church of England","church_diocese":"0","award_qualification":"Bronze"}},{"type":"Feature","geometry":{"type":"Point","coordinates":[-1.895521,50.801891]},"properties":{"cartodb_id":82,"church_name":"St Mary's, Ferndown","address_street":"St Mary's Church Office","address_line2":"Church Road","address_city":"Ferndown","address_state_prov":0,"address_postcode":"BH22 9EU","church_denomination":"Church of England","church_diocese":"Salisbury","award_qualification":"Registered"}},{"type":"Feature","geometry":{"type":"Point","coordinates":[-1.778696,50.737575]},"properties":{"cartodb_id":83,"church_name":"Christchurch Baptist Church","address_street":"49 Bargates","address_line2":"0","address_city":"Christchurch","address_state_prov":0,"address_postcode":"BH23 1QT","church_denomination":"Baptist","church_diocese":"Not Applicable","award_qualification":"Registered"}},{"type":"Feature","geometry":{"type":"Point","coordinates":[-1.787711,50.843839]},"properties":{"cartodb_id":84,"church_name":"Trinity United Church","address_street":"Christchurch Road","address_line2":"0","address_city":"Ringwood","address_state_prov":0,"address_postcode":"BH24 1DH","church_denomination":"LEP (Methodist and United Reformed)","church_diocese":"Not Applicable","award_qualification":"Registered"}},{"type":"Feature","geometry":{"type":"Point","coordinates":[-2.297003,53.576954]},"properties":{"cartodb_id":90,"church_name":"St. Mary the Virgin, Bury Parish","address_street":"Tithebarn Street","address_line2":"0","address_city":"Bury","address_state_prov":0,"address_postcode":"BL9","church_denomination":"Church of England","church_diocese":"0","award_qualification":"Registered"}},{"type":"Feature","geometry":{"type":"Point","coordinates":[-1.767575,50.854538]},"properties":{"cartodb_id":85,"church_name":"Parish of Ringwood","address_street":"St John the Baptist Church Hall","address_line2":"Linford Road, Poulner","address_city":"Ringwood","address_state_prov":0,"address_postcode":"BH24 1TY","church_denomination":"C of E","church_diocese":"Winchester","award_qualification":"Registered"}},{"type":"Feature","geometry":{"type":"Point","coordinates":[-1.880827,50.877207]},"properties":{"cartodb_id":86,"church_name":"St Michaels & All Angels","address_street":"Church Hill","address_line2":"0","address_city":"Verwood","address_state_prov":0,"address_postcode":"BH31  6HT","church_denomination":"C of E","church_diocese":"Salisbury","award_qualification":"Registered"}},{"type":"Feature","geometry":{"type":"Point","coordinates":[-1.808448,50.725425]},"properties":{"cartodb_id":87,"church_name":"Immanuel Church","address_street":"120 Southbourne Raod","address_line2":"0","address_city":"Southbourne","address_state_prov":0,"address_postcode":"BH63QJ","church_denomination":"URC","church_diocese":"Not Applicable","award_qualification":"Registered"}},{"type":"Feature","geometry":{"type":"Point","coordinates":[-1.862199,50.725581]},"properties":{"cartodb_id":88,"church_name":"East Cliff United Reformed Church","address_street":"Holdenhurst Road","address_line2":"0","address_city":"Bournemouth","address_state_prov":0,"address_postcode":"BH8 8AW","church_denomination":"United Reformed","church_diocese":"Not Applicable","award_qualification":"Registered"}},{"type":"Feature","geometry":{"type":"Point","coordinates":[-2.463483,53.568109]},"properties":{"cartodb_id":89,"church_name":"St. Mary's - Deane Parish Church","address_street":"Junction Road","address_line2":"Deane","address_city":"Bolton","address_state_prov":0,"address_postcode":"BL3 4LT","church_denomination":"Church of England","church_diocese":"0","award_qualification":"Registered"}},{"type":"Feature","geometry":{"type":"Point","coordinates":[-0.14055,50.825952]},"properties":{"cartodb_id":91,"church_name":"Brighthelm Church and Community Centre","address_street":"North Road","address_line2":"0","address_city":"Brighton","address_state_prov":0,"address_postcode":"BN1 1YD","church_denomination":"United Reformed Church","church_diocese":"Not Applicable","award_qualification":"Bronze"}},{"type":"Feature","geometry":{"type":"Point","coordinates":[-0.135907,50.826282]},"properties":{"cartodb_id":92,"church_name":"One Church Brighton","address_street":"One Church Brighton","address_line2":"Gloucester Place","address_city":"Brighton","address_state_prov":0,"address_postcode":"BN1 4AA","church_denomination":"Baptist","church_diocese":"0","award_qualification":"Bronze"}},{"type":"Feature","geometry":{"type":"Point","coordinates":[-0.149999,50.844808]},"properties":{"cartodb_id":93,"church_name":"St John the Evangelist Church","address_street":"Knoyle Rd","address_line2":"0","address_city":"Brighton","address_state_prov":0,"address_postcode":"BN1 6RB","church_denomination":"Church of England","church_diocese":"0","award_qualification":"Bronze"}},{"type":"Feature","geometry":{"type":"Point","coordinates":[-0.368827,50.814168]},"properties":{"cartodb_id":94,"church_name":"Storm Church","address_street":"Storm House","address_line2":"4 Union Place","address_city":"Worthing","address_state_prov":0,"address_postcode":"BN11 1LG","church_denomination":"Elim","church_diocese":"0","award_qualification":"Bronze"}},{"type":"Feature","geometry":{"type":"Point","coordinates":[-0.392511,50.820181]},"properties":{"cartodb_id":95,"church_name":"West Worthing Baptist Church","address_street":"45 South Street","address_line2":"Tarring","address_city":"Worthing","address_state_prov":0,"address_postcode":"BN14 7LU","church_denomination":"Baptist","church_diocese":"0","award_qualification":"Registered"}},{"type":"Feature","geometry":{"type":"Point","coordinates":[-0.373388,50.821391]},"properties":{"cartodb_id":96,"church_name":"River of Life church","address_street":"19a Broadwater Road","address_line2":"0","address_city":"Worthing","address_state_prov":0,"address_postcode":"BN14 8AD","church_denomination":"Pioneer network","church_diocese":"0","award_qualification":"Registered"}},{"type":"Feature","geometry":{"type":"Point","coordinates":[-0.380531,50.828316]},"properties":{"cartodb_id":97,"church_name":"Offington Park Methodist Church","address_street":"South Farm Road","address_line2":"0","address_city":"Worthing","address_state_prov":0,"address_postcode":"BN147TN","church_denomination":"Methodist","church_diocese":"0","award_qualification":"Registered"}},{"type":"Feature","geometry":{"type":"Point","coordinates":[-0.075161,50.818731]},"properties":{"cartodb_id":98,"church_name":"St Wulfran's, Ovingdean, Brighton","address_street":"St Wulfran's Parish Church","address_line2":"Greenways","address_city":"Brighton","address_state_prov":0,"address_postcode":"BN2 7BB","church_denomination":"Church of England","church_diocese":"Chichester","award_qualification":"Registered"}},{"type":"Feature","geometry":{"type":"Point","coordinates":[0.245952,50.889617]},"properties":{"cartodb_id":99,"church_name":"St Peter and St Paul","address_street":"Church Lane","address_line2":"0","address_city":"Hellingly","address_state_prov":0,"address_postcode":"BN27 4HA","church_denomination":"Church of England","church_diocese":"0","award_qualification":"Registered"}},{"type":"Feature","geometry":{"type":"Point","coordinates":[0.006239,50.86856]},"properties":{"cartodb_id":100,"church_name":"Trinity Church, Lewes","address_street":"1 Cockshut Road","address_line2":"0","address_city":"Lewes","address_state_prov":0,"address_postcode":"BN7 1JH","church_denomination":"Church of England","church_diocese":"0","award_qualification":"Silver"}},{"type":"Feature","geometry":{"type":"Point","coordinates":[0.962283,51.24418]},"properties":{"cartodb_id":152,"church_name":"Chilham Church","address_street":"Chilham Sqaure","address_line2":"Chilham","address_city":"Canterbury","address_state_prov":0,"address_postcode":"CT4 8BY","church_denomination":"Anglican","church_diocese":"0","award_qualification":"Registered"}},{"type":"Feature","geometry":{"type":"Point","coordinates":[0.017094,51.405734]},"properties":{"cartodb_id":101,"church_name":"Bromley URC","address_street":"Bromley URC","address_line2":"20, Widmore Road","address_city":"Bromley","address_state_prov":0,"address_postcode":"BR1 1RY","church_denomination":"United Reformed","church_diocese":"Not Applicable","award_qualification":"Registered"}},{"type":"Feature","geometry":{"type":"Point","coordinates":[-0.024088,51.408352]},"properties":{"cartodb_id":102,"church_name":"Beckenham Methodist Church","address_street":"Bromley Road","address_line2":"0","address_city":"Beckenham","address_state_prov":0,"address_postcode":"BR3 5JE","church_denomination":"Methodist","church_diocese":"0","award_qualification":"Registered"}},{"type":"Feature","geometry":{"type":"Point","coordinates":[-0.117702,51.329381]},"properties":{"cartodb_id":147,"church_name":"Saint Barnabas","address_street":"69 Higher Drive","address_line2":"0","address_city":"Purley","address_state_prov":0,"address_postcode":"CR8 2HR","church_denomination":"Church of England","church_diocese":"0","award_qualification":"Registered"}},{"type":"Feature","geometry":{"type":"Point","coordinates":[0.078398,51.38879]},"properties":{"cartodb_id":103,"church_name":"Christ Church United Reformed","address_street":"Christ Church United Reformed","address_line2":"Tudor Way","address_city":"Petts Wood,  Orpington, Kent","address_state_prov":0,"address_postcode":"BR5 1LH","church_denomination":"United Reformed","church_diocese":"0","award_qualification":"Registered"}},{"type":"Feature","geometry":{"type":"Point","coordinates":[0.088641,51.377304]},"properties":{"cartodb_id":104,"church_name":"St John's United Reformed Church","address_street":"Lynwood Grove","address_line2":"0","address_city":"Orpington","address_state_prov":0,"address_postcode":"BR6 0BG","church_denomination":"United Reformed Church","church_diocese":"Not Applicable","award_qualification":"Bronze"}},{"type":"Feature","geometry":{"type":"Point","coordinates":[0.104991,51.364097]},"properties":{"cartodb_id":105,"church_name":"Christ Church Orpington","address_street":"Christ Church","address_line2":"Charterhouse Road","address_city":"Orpington","address_state_prov":0,"address_postcode":"BR6 9EP","church_denomination":"Anglian","church_diocese":"0","award_qualification":"Registered"}},{"type":"Feature","geometry":{"type":"Point","coordinates":[-1.623606,52.288272]},"properties":{"cartodb_id":170,"church_name":"St Michael's Budbrooke","address_street":"Church Lane","address_line2":"Hampton Magna","address_city":"Warwick","address_state_prov":0,"address_postcode":"CV35 8QL","church_denomination":"Anglican","church_diocese":"0","award_qualification":"Registered"}},{"type":"Feature","geometry":{"type":"Point","coordinates":[-2.592748,51.457424]},"properties":{"cartodb_id":106,"church_name":"Severn Vineyard","address_street":"The Station","address_line2":"Silver Street","address_city":"Bristol","address_state_prov":0,"address_postcode":"BS1 2AG","church_denomination":"Vineyard","church_diocese":"Not Applicable","award_qualification":"Registered"}},{"type":"Feature","geometry":{"type":"Point","coordinates":[-2.970614,51.351058]},"properties":{"cartodb_id":107,"church_name":"Christ Church","address_street":"16 Montpelier","address_line2":"0","address_city":"Weston-super-Mare","address_state_prov":0,"address_postcode":"BS23 2RH","church_denomination":"Church of England","church_diocese":"Bath and Wells","award_qualification":"Bronze"}},{"type":"Feature","geometry":{"type":"Point","coordinates":[-2.843929,51.306351]},"properties":{"cartodb_id":108,"church_name":"St James's and All Saints","address_street":"C/O The Vicarage","address_line2":"Winscombe Hill","address_city":"Winscpombe","address_state_prov":0,"address_postcode":"BS25 1DE","church_denomination":"Church of England","church_diocese":"Bath and Wells","award_qualification":"Registered"}},{"type":"Feature","geometry":{"type":"Point","coordinates":[-2.500182,51.416099]},"properties":{"cartodb_id":109,"church_name":"Keynsham Methodist","address_street":"Charlton Road","address_line2":"Keynsham","address_city":"Bristol","address_state_prov":0,"address_postcode":"BS31 2JA","church_denomination":"Methodist","church_diocese":"0","award_qualification":"Registered"}},{"type":"Feature","geometry":{"type":"Point","coordinates":[-2.765297,51.433667]},"properties":{"cartodb_id":110,"church_name":"Nailsea Methodist Church","address_street":"Chapel Precinct","address_line2":"Silver Street","address_city":"Nailsea, Bristol","address_state_prov":0,"address_postcode":"BS48 2DS","church_denomination":"Methodist","church_diocese":"Not Applicable","award_qualification":"Registered"}},{"type":"Feature","geometry":{"type":"Point","coordinates":[-2.815952,51.386253]},"properties":{"cartodb_id":111,"church_name":"Holy Trinity","address_street":"Main Road","address_line2":"Cleeve","address_city":"Bristol","address_state_prov":0,"address_postcode":"BS49 4HT","church_denomination":"Anglican","church_diocese":"0","award_qualification":"Registered"}},{"type":"Feature","geometry":{"type":"Point","coordinates":[-2.61169,51.468243]},"properties":{"cartodb_id":112,"church_name":"Redland Park URC","address_street":"Redland Park","address_line2":"Redland","address_city":"Bristol","address_state_prov":0,"address_postcode":"BS6 6SA","church_denomination":"United Reformed Church","church_diocese":"0","award_qualification":"Bronze"}},{"type":"Feature","geometry":{"type":"Point","coordinates":[-2.605341,51.472565]},"properties":{"cartodb_id":113,"church_name":"Redland Parish Church","address_street":"Redland Church Hall","address_line2":"Redland Green Road","address_city":"Bristol","address_state_prov":0,"address_postcode":"BS6 7HE","church_denomination":"Anglican","church_diocese":"0","award_qualification":"Registered"}},{"type":"Feature","geometry":{"type":"Point","coordinates":[-2.57976,51.484212]},"properties":{"cartodb_id":114,"church_name":"Horfield United Reformed Church","address_street":"139 Muller Road","address_line2":"Horfield","address_city":"Bristol","address_state_prov":0,"address_postcode":"BS7 9RE","church_denomination":"URC","church_diocese":"0","award_qualification":"Registered"}},{"type":"Feature","geometry":{"type":"Point","coordinates":[-3.238668,50.679566]},"properties":{"cartodb_id":225,"church_name":"St Giles & St Nicholas Church","address_street":"Church Street","address_line2":"0","address_city":"Sidmouth","address_state_prov":0,"address_postcode":"EX10 8LG","church_denomination":"Church of England","church_diocese":"Exeter","award_qualification":"Registered"}},{"type":"Feature","geometry":{"type":"Point","coordinates":[-2.629429,51.476826]},"properties":{"cartodb_id":116,"church_name":"Trinity College Bristol","address_street":"Stoke Hill","address_line2":"0","address_city":"Bristol","address_state_prov":0,"address_postcode":"BS9 1JP","church_denomination":"Church of England","church_diocese":"Bristol","award_qualification":"Silver"}},{"type":"Feature","geometry":{"type":"Point","coordinates":[-2.617682,51.49301]},"properties":{"cartodb_id":117,"church_name":"Westbury on Trym Methodist Church","address_street":"46 Westbury Hill","address_line2":"0","address_city":"Bristol","address_state_prov":0,"address_postcode":"BS9 3AA","church_denomination":"Methodist","church_diocese":"0","award_qualification":"Silver"}},{"type":"Feature","geometry":{"type":"Point","coordinates":[-2.610784,51.486635]},"properties":{"cartodb_id":118,"church_name":"Trinity-Henleaze United Reformed Church","address_street":"Waterford Road","address_line2":"Henleaze","address_city":"Bristol","address_state_prov":0,"address_postcode":"BS9 4BT","church_denomination":"United Reformed Church","church_diocese":"0","award_qualification":"Registered"}},{"type":"Feature","geometry":{"type":"Point","coordinates":[-3.13461,54.599016]},"properties":{"cartodb_id":120,"church_name":"Keswick St John","address_street":"Ambleside Road","address_line2":"0","address_city":"Keswick","address_state_prov":0,"address_postcode":"CA12  5PZ","church_denomination":"Church of England","church_diocese":"Carlisle","award_qualification":"Registered"}},{"type":"Feature","geometry":{"type":"Point","coordinates":[0.156102,52.198393]},"properties":{"cartodb_id":121,"church_name":"The C3 Church","address_street":"C3 Centre","address_line2":"Coldhams Lane","address_city":"Cambridge","address_state_prov":0,"address_postcode":"CB1 3HR","church_denomination":"Free Church","church_diocese":"0","award_qualification":"Bronze"}},{"type":"Feature","geometry":{"type":"Point","coordinates":[0.018358,52.252937]},"properties":{"cartodb_id":122,"church_name":"Bar Hill Church Centre","address_street":"Hanover Close","address_line2":"Bar Hill","address_city":"Cambridge","address_state_prov":0,"address_postcode":"CB23 8EH","church_denomination":"Ecumenical","church_diocese":"0","award_qualification":"Bronze"}},{"type":"Feature","geometry":{"type":"Point","coordinates":[0,0]},"properties":{"cartodb_id":123,"church_name":"Great St Mary's Church","address_street":"Senate House Hill","address_line2":"Cambridge","address_city":"Cambridge","address_state_prov":0,"address_postcode":"CB3 3PQ","church_denomination":"Anglican","church_diocese":"Ely","award_qualification":"Registered"}},{"type":"Feature","geometry":{"type":"Point","coordinates":[0.372371,52.263706]},"properties":{"cartodb_id":124,"church_name":"St Martin's Church","address_street":"Church Street","address_line2":"Exning","address_city":"Newmarket","address_state_prov":0,"address_postcode":"CB8 7HF","church_denomination":"Church of England","church_diocese":"St Edmundsbury & Ipswich","award_qualification":"Registered"}},{"type":"Feature","geometry":{"type":"Point","coordinates":[-3.173176,51.484174]},"properties":{"cartodb_id":125,"church_name":"City United Reformed Church","address_street":"United Reformed Church","address_line2":"Windsor Place","address_city":"Cardiff","address_state_prov":0,"address_postcode":"CF10 3BZ","church_denomination":"United Reformed Church","church_diocese":"0","award_qualification":"Registered"}},{"type":"Feature","geometry":{"type":"Point","coordinates":[-3.163536,53.358677]},"properties":{"cartodb_id":127,"church_name":"Church of the Resurrection & All Saints, Caldy (Caldy Church)","address_street":"Caldy Road","address_line2":"0","address_city":"Caldy","address_state_prov":0,"address_postcode":"CH48 2HZ","church_denomination":"Church of England","church_diocese":"Chester","award_qualification":"Bronze"}},{"type":"Feature","geometry":{"type":"Point","coordinates":[-0.099169,51.321779]},"properties":{"cartodb_id":148,"church_name":"All Saints, Parish Church of Kenley","address_street":"Church Road","address_line2":"0","address_city":"Kenley","address_state_prov":0,"address_postcode":"CR8 5DU","church_denomination":"Church of England","church_diocese":"Southwark","award_qualification":"Registered"}},{"type":"Feature","geometry":{"type":"Point","coordinates":[-3.174506,53.368548]},"properties":{"cartodb_id":128,"church_name":"St Bridget's West Kirby","address_street":"Church Road","address_line2":"0","address_city":"West Kirby","address_state_prov":0,"address_postcode":"CH48 7HL","church_denomination":"Church of England","church_diocese":"Chester","award_qualification":"Registered"}},{"type":"Feature","geometry":{"type":"Point","coordinates":[-3.093077,53.324582]},"properties":{"cartodb_id":130,"church_name":"Heswall Quaker Meeting","address_street":"North Drive","address_line2":"Heswall","address_city":"Wirral","address_state_prov":0,"address_postcode":"CH60 0BD","church_denomination":"Quaker","church_diocese":"Not Applicable","award_qualification":"Bronze"}},{"type":"Feature","geometry":{"type":"Point","coordinates":[-2.964555,53.310472]},"properties":{"cartodb_id":131,"church_name":"St David's Eastham URC","address_street":"8 Crossthwaite Avenue","address_line2":"Eastham","address_city":"Wirral","address_state_prov":0,"address_postcode":"CH62 9DG","church_denomination":"United Reformed","church_diocese":"Not Applicable","award_qualification":"Registered"}},{"type":"Feature","geometry":{"type":"Point","coordinates":[-3.016644,53.352486]},"properties":{"cartodb_id":132,"church_name":"Higher Bebington Road United Reformed Church","address_street":"Higher Bebington Road","address_line2":"0","address_city":"Wirrral","address_state_prov":0,"address_postcode":"CH63 2PL","church_denomination":"URC","church_diocese":"Not Applicable","award_qualification":"Bronze"}},{"type":"Feature","geometry":{"type":"Point","coordinates":[-3.138029,53.166454]},"properties":{"cartodb_id":133,"church_name":"Tyddyn Street United Church","address_street":"Tyddyn Street","address_line2":"0","address_city":"Mold","address_state_prov":0,"address_postcode":"CH7 1DX","church_denomination":"URC/PCW","church_diocese":"Not Applicable","award_qualification":"Registered"}},{"type":"Feature","geometry":{"type":"Point","coordinates":[0.473615,51.735356]},"properties":{"cartodb_id":134,"church_name":"Chelmsford Cathedral","address_street":"Cathedral Office","address_line2":"53  New Street","address_city":"Chelmsford","address_state_prov":0,"address_postcode":"CM1 1AT","church_denomination":"C of E","church_diocese":"0","award_qualification":"Registered"}},{"type":"Feature","geometry":{"type":"Point","coordinates":[0.261659,51.666858]},"properties":{"cartodb_id":135,"church_name":"St Nicholas' Church","address_street":"Church Rd","address_line2":"Kelvedon Hatch","address_city":"Brentwood","address_state_prov":0,"address_postcode":"CM14 5TJ","church_denomination":"Church of England","church_diocese":"Chelmsford","award_qualification":"Registered"}},{"type":"Feature","geometry":{"type":"Point","coordinates":[-0.127757,51.333787]},"properties":{"cartodb_id":146,"church_name":"St Swithun's, Purley","address_street":"Grovelands Road","address_line2":"0","address_city":"Purley","address_state_prov":0,"address_postcode":"CR8  4LB","church_denomination":"CofE","church_diocese":"Not Applicable","award_qualification":"Registered"}},{"type":"Feature","geometry":{"type":"Point","coordinates":[1.078875,51.280628]},"properties":{"cartodb_id":149,"church_name":"Friends Meeting House Canterbury","address_street":"Friends Meeting House","address_line2":"The Friars","address_city":"Canterbury","address_state_prov":0,"address_postcode":"CT1 2AS","church_denomination":"Quaker","church_diocese":"0","award_qualification":"Registered"}},{"type":"Feature","geometry":{"type":"Point","coordinates":[0.205096,51.811934]},"properties":{"cartodb_id":136,"church_name":"Holy Trinity","address_street":"Church Lane","address_line2":"Hatfield Heath","address_city":"Bishops Stortford","address_state_prov":0,"address_postcode":"CM22 7AB","church_denomination":"Church of England","church_diocese":"Chelmsford","award_qualification":"Registered"}},{"type":"Feature","geometry":{"type":"Point","coordinates":[0.168544,51.871604]},"properties":{"cartodb_id":137,"church_name":"All Saint's Hockerill","address_street":"All Saints Church","address_line2":"Stansted Rd","address_city":"Bishops Stortford","address_state_prov":0,"address_postcode":"CM23 2DY","church_denomination":"Anglican","church_diocese":"0","award_qualification":"Registered"}},{"type":"Feature","geometry":{"type":"Point","coordinates":[0.73019,52.04361]},"properties":{"cartodb_id":138,"church_name":"St John's Methodist Church","address_street":"York Road","address_line2":"0","address_city":"SUDBURY","address_state_prov":0,"address_postcode":"CO10 1NE","church_denomination":"Methodist","church_diocese":"0","award_qualification":"Bronze"}},{"type":"Feature","geometry":{"type":"Point","coordinates":[-0.043957,51.384153]},"properties":{"cartodb_id":139,"church_name":"St George the Martyr, Shirley","address_street":"Elstan Way","address_line2":"Shirley","address_city":"Croydon","address_state_prov":0,"address_postcode":"CR0 7PR","church_denomination":"Church of England","church_diocese":"Southwark","award_qualification":"Registered"}},{"type":"Feature","geometry":{"type":"Point","coordinates":[-0.0746,51.335443]},"properties":{"cartodb_id":140,"church_name":"all saints church sanderstead","address_street":"onslow gardens","address_line2":"sanderstead","address_city":"south croydon","address_state_prov":0,"address_postcode":"cr2 9ab","church_denomination":"anglican","church_diocese":"0","award_qualification":"Bronze"}},{"type":"Feature","geometry":{"type":"Point","coordinates":[-0.093017,51.330321]},"properties":{"cartodb_id":141,"church_name":"St Edmund, King & Martyr","address_street":"Mitchley Avenue","address_line2":"Sanderstead","address_city":"SOUTH CROYDON","address_state_prov":0,"address_postcode":"CR2 9HL","church_denomination":"Church of England","church_diocese":"Southwark","award_qualification":"Registered"}},{"type":"Feature","geometry":{"type":"Point","coordinates":[-0.094526,51.345157]},"properties":{"cartodb_id":142,"church_name":"St Mary's","address_street":"Purley Oaks Road","address_line2":"Sanderstead","address_city":"South Croydon","address_state_prov":0,"address_postcode":"CR20NR","church_denomination":"Church of England","church_diocese":"Southwark","award_qualification":"Bronze"}},{"type":"Feature","geometry":{"type":"Point","coordinates":[-0.159946,51.382803]},"properties":{"cartodb_id":143,"church_name":"All Saints Hackbridge and Beddington Corner","address_street":"c/o All Saints Centre","address_line2":"New Road","address_city":"Hackbrige, Surrey","address_state_prov":0,"address_postcode":"CR4 4JN","church_denomination":"Church of England","church_diocese":"0","award_qualification":"Registered"}},{"type":"Feature","geometry":{"type":"Point","coordinates":[-0.158106,51.290419]},"properties":{"cartodb_id":144,"church_name":"St Margaret's Chipstead","address_street":"St Margaret's Church","address_line2":"Church Lane","address_city":"Chipstead","address_state_prov":0,"address_postcode":"CR5 3RD","church_denomination":"Church of England","church_diocese":"0","award_qualification":"Registered"}},{"type":"Feature","geometry":{"type":"Point","coordinates":[-0.115818,51.401571]},"properties":{"cartodb_id":145,"church_name":"St Stephen's Church Norbury and Thornton Heath","address_street":"Warwick Road","address_line2":"0","address_city":"Thornton Heath","address_state_prov":0,"address_postcode":"CR7 7NH","church_denomination":"Anglican","church_diocese":"Southwark","award_qualification":"Registered"}},{"type":"Feature","geometry":{"type":"Point","coordinates":[1.439903,51.357309]},"properties":{"cartodb_id":150,"church_name":"Broadstairs Methodist Church","address_street":"Methodist Church","address_line2":"23a York Street","address_city":"Broadstairs","address_state_prov":0,"address_postcode":"CT10 1PB","church_denomination":"Methodist","church_diocese":"Not Applicable","award_qualification":"Silver"}},{"type":"Feature","geometry":{"type":"Point","coordinates":[1.077081,51.083025]},"properties":{"cartodb_id":151,"church_name":"St. Peter and St. Paul Saltwood","address_street":"The Rectory","address_line2":"Rectory Lane","address_city":"Saltwood","address_state_prov":0,"address_postcode":"CT21 4QA","church_denomination":"Church of England","church_diocese":"Canterbury","award_qualification":"Registered"}},{"type":"Feature","geometry":{"type":"Point","coordinates":[1.393147,51.389078]},"properties":{"cartodb_id":153,"church_name":"St Paul's","address_street":"Northdown Road","address_line2":"0","address_city":"Margate","address_state_prov":0,"address_postcode":"CT9 2RD","church_denomination":"C of E","church_diocese":"0","award_qualification":"Registered"}},{"type":"Feature","geometry":{"type":"Point","coordinates":[-1.508002,52.409189]},"properties":{"cartodb_id":154,"church_name":"Coventry Cathedral","address_street":"1 Hill Top","address_line2":"0","address_city":"Coventry","address_state_prov":0,"address_postcode":"CV1 5AB","church_denomination":"Church of England","church_diocese":"0","award_qualification":"Registered"}},{"type":"Feature","geometry":{"type":"Point","coordinates":[-1.526342,52.523689]},"properties":{"cartodb_id":155,"church_name":"Holy Trinity Hartshill","address_street":"Church Road","address_line2":"Hartshill","address_city":"NUNEATON","address_state_prov":0,"address_postcode":"CV10 9RT","church_denomination":"Church of England","church_diocese":"0","award_qualification":"Registered"}},{"type":"Feature","geometry":{"type":"Point","coordinates":[-1.24413,52.372707]},"properties":{"cartodb_id":156,"church_name":"St Peter and St John Church","address_street":"St Peter and St John Church","address_line2":"Clifton","address_city":"Rugby","address_state_prov":0,"address_postcode":"CV21 3PF","church_denomination":"Church of England","church_diocese":"Coventry","award_qualification":"Registered"}},{"type":"Feature","geometry":{"type":"Point","coordinates":[-1.252103,52.368505]},"properties":{"cartodb_id":157,"church_name":"Rurby United Reformed Church","address_street":"40 Hillmorton Road","address_line2":"0","address_city":"Rugby","address_state_prov":0,"address_postcode":"CV22 5AD","church_denomination":"United Reformed Church","church_diocese":"Not Applicable","award_qualification":"Registered"}},{"type":"Feature","geometry":{"type":"Point","coordinates":[-1.231632,52.359878]},"properties":{"cartodb_id":158,"church_name":"Hillmorton Paddox Methodist Church","address_street":"Dunsmore Avenue","address_line2":"0","address_city":"Rugby","address_state_prov":0,"address_postcode":"CV22 5HD","church_denomination":"Methodist","church_diocese":"Not Applicable","award_qualification":"Registered"}},{"type":"Feature","geometry":{"type":"Point","coordinates":[-1.279719,52.297779]},"properties":{"cartodb_id":159,"church_name":"Church of St Peter","address_street":"Church Road","address_line2":"Grandborough","address_city":"Rugby","address_state_prov":0,"address_postcode":"CV23 8DH","church_denomination":"Church of England","church_diocese":"Coventry","award_qualification":"Registered"}},{"type":"Feature","geometry":{"type":"Point","coordinates":[-1.368371,52.311556]},"properties":{"cartodb_id":160,"church_name":"St Leonards","address_street":"St Leonards","address_line2":"Main Street, Birdingbury","address_city":"Rugby","address_state_prov":0,"address_postcode":"CV23 8EL","church_denomination":"C of E","church_diocese":"Coventry","award_qualification":"Registered"}},{"type":"Feature","geometry":{"type":"Point","coordinates":[-1.399746,52.349596]},"properties":{"cartodb_id":161,"church_name":"All Saints","address_street":"Church Hill","address_line2":"Stretton on Dunsmore","address_city":"Rugby","address_state_prov":0,"address_postcode":"CV23 9NN","church_denomination":"Church of England","church_diocese":"Coventry","award_qualification":"Registered"}},{"type":"Feature","geometry":{"type":"Point","coordinates":[-1.527591,52.382244]},"properties":{"cartodb_id":162,"church_name":"St Martin in the fields","address_street":"Green Lane","address_line2":"Finham","address_city":"Coventry","address_state_prov":0,"address_postcode":"CV3 6EA","church_denomination":"Anglican","church_diocese":"Coventry","award_qualification":"Bronze"}},{"type":"Feature","geometry":{"type":"Point","coordinates":[-1.514805,52.385348]},"properties":{"cartodb_id":163,"church_name":"West Orchard United Reformed Church","address_street":"83 Baginton Road","address_line2":"0","address_city":"Coventry","address_state_prov":0,"address_postcode":"CV3 6FP","church_denomination":"United Reformed Church","church_diocese":"0","award_qualification":"Bronze"}},{"type":"Feature","geometry":{"type":"Point","coordinates":[-1.499188,52.313738]},"properties":{"cartodb_id":164,"church_name":"St Mary's Church, Cubbington","address_street":"Church Lane","address_line2":"Cubbington, Leamington Spa","address_city":"Warwickshire","address_state_prov":0,"address_postcode":"CV32 7JT","church_denomination":"Anglican","church_diocese":"Coventry","award_qualification":"Registered"}},{"type":"Feature","geometry":{"type":"Point","coordinates":[-1.475107,52.290924]},"properties":{"cartodb_id":165,"church_name":"St Gregory's","address_street":"Village Street","address_line2":"Offchurch","address_city":"Leamington Spa","address_state_prov":0,"address_postcode":"CV33 9AH","church_denomination":"Church of England","church_diocese":"Coventry","award_qualification":"Registered"}},{"type":"Feature","geometry":{"type":"Point","coordinates":[-1.453621,52.236633]},"properties":{"cartodb_id":166,"church_name":"All Saints Harbury","address_street":"2 Church Street","address_line2":"0","address_city":"Harbury","address_state_prov":0,"address_postcode":"CV33 9EY","church_denomination":"Church of England","church_diocese":"0","award_qualification":"Registered"}},{"type":"Feature","geometry":{"type":"Point","coordinates":[-1.563341,52.186827]},"properties":{"cartodb_id":168,"church_name":"St Peters","address_street":"St Peter's","address_line2":"Warwick Road","address_city":"Kineton","address_state_prov":0,"address_postcode":"CV35","church_denomination":"Church of England","church_diocese":"Coventry","award_qualification":"Registered"}},{"type":"Feature","geometry":{"type":"Point","coordinates":[-1.577548,52.317074]},"properties":{"cartodb_id":169,"church_name":"All Saints Church, Leek Wootton","address_street":"Church Lane","address_line2":"Leek Wootton","address_city":"WARWICK","address_state_prov":0,"address_postcode":"CV35 7QZ","church_denomination":"Church of England","church_diocese":"Coventry","award_qualification":"Registered"}},{"type":"Feature","geometry":{"type":"Point","coordinates":[-1.552301,52.162625]},"properties":{"cartodb_id":171,"church_name":"St Mary and Margaret  Combroke","address_street":"25 Combrook","address_line2":"The Church","address_city":"Combroke","address_state_prov":0,"address_postcode":"CV35 9HP","church_denomination":"Anglican","church_diocese":"0","award_qualification":"Registered"}},{"type":"Feature","geometry":{"type":"Point","coordinates":[-1.623472,52.063204]},"properties":{"cartodb_id":172,"church_name":"St Edmund's Church","address_street":"Church Street","address_line2":"0","address_city":"Shipston","address_state_prov":0,"address_postcode":"CV36 4AP","church_denomination":"Anglican","church_diocese":"Coventry","award_qualification":"Registered"}},{"type":"Feature","geometry":{"type":"Point","coordinates":[-1.694377,52.088997]},"properties":{"cartodb_id":173,"church_name":"St Mary's, Ilmington,","address_street":"The Rectory, Valenders Lane","address_line2":"Ilmington","address_city":"Shipston-on-Stour","address_state_prov":0,"address_postcode":"CV36 4LB","church_denomination":"Anglican","church_diocese":"Coventry","award_qualification":"Bronze"}},{"type":"Feature","geometry":{"type":"Point","coordinates":[-1.709143,52.188478]},"properties":{"cartodb_id":174,"church_name":"Stratford upon Avon Methodist Church","address_street":"Old Town","address_line2":"0","address_city":"Stratford upon Avon","address_state_prov":0,"address_postcode":"CV37 6BG","church_denomination":"Methodist","church_diocese":"Not Applicable","award_qualification":"Silver"}},{"type":"Feature","geometry":{"type":"Point","coordinates":[-1.667584,52.202528]},"properties":{"cartodb_id":175,"church_name":"ST JAMES","address_street":"Church Lane","address_line2":"Alveston","address_city":"Stratford upon Avon","address_state_prov":0,"address_postcode":"CV37 7QB","church_denomination":"Church of Englanf","church_diocese":"0","award_qualification":"Registered"}},{"type":"Feature","geometry":{"type":"Point","coordinates":[-1.601531,52.420167]},"properties":{"cartodb_id":177,"church_name":"St Andrews Church","address_street":"St Andrews Chirch","address_line2":"Church Lane","address_city":"Coventry","address_state_prov":0,"address_postcode":"CV5 7BX","church_denomination":"Church of England","church_diocese":"0","award_qualification":"Bronze"}},{"type":"Feature","geometry":{"type":"Point","coordinates":[-1.535173,52.406017]},"properties":{"cartodb_id":178,"church_name":"ST MARY MAGDALEN CHURCH","address_street":"St Mary Magdelene","address_line2":"Sir Thomas Whites Road","address_city":"Coventry","address_state_prov":0,"address_postcode":"CV5 8DR","church_denomination":"Anglican","church_diocese":"Coventry","award_qualification":"Registered"}},{"type":"Feature","geometry":{"type":"Point","coordinates":[-1.451817,53.0223]},"properties":{"cartodb_id":189,"church_name":"Belper St Mark","address_street":"11 Openwoodgate","address_line2":"0","address_city":"Belper","address_state_prov":0,"address_postcode":"DE56 0SD","church_denomination":"Church of England","church_diocese":"Derby","award_qualification":"Registered"}},{"type":"Feature","geometry":{"type":"Point","coordinates":[-1.574395,52.338379]},"properties":{"cartodb_id":179,"church_name":"St John the Evangelist","address_street":"205 Warwick Road","address_line2":"0","address_city":"Kenilworth","address_state_prov":0,"address_postcode":"CV8 1HY","church_denomination":"Church of England","church_diocese":"Coventry","award_qualification":"Registered"}},{"type":"Feature","geometry":{"type":"Point","coordinates":[-1.573863,52.343313]},"properties":{"cartodb_id":180,"church_name":"Kenilworth Methodist Church","address_street":"Priory Road","address_line2":"0","address_city":"Kenilworth","address_state_prov":0,"address_postcode":"CV8 1LQ","church_denomination":"Methodist","church_diocese":"Not Applicable","award_qualification":"Registered"}},{"type":"Feature","geometry":{"type":"Point","coordinates":[0.201146,51.445651]},"properties":{"cartodb_id":181,"church_name":"Christ Church","address_street":"Cross Rd","address_line2":"0","address_city":"Dartford","address_state_prov":0,"address_postcode":"DA1 3ET","church_denomination":"Church Of England","church_diocese":"0","award_qualification":"Registered"}},{"type":"Feature","geometry":{"type":"Point","coordinates":[0.089805,51.443534]},"properties":{"cartodb_id":182,"church_name":"The Holy Redeemer Lamorbey","address_street":"64 Days Lane","address_line2":"Sidcup","address_city":"Kent","address_state_prov":0,"address_postcode":"DA158JR","church_denomination":"Church of England","church_diocese":"Not Applicable","award_qualification":"Bronze"}},{"type":"Feature","geometry":{"type":"Point","coordinates":[-1.478043,52.924435]},"properties":{"cartodb_id":183,"church_name":"Derby Cathedral","address_street":"Iron Gate","address_line2":"0","address_city":"Derby","address_state_prov":0,"address_postcode":"DE1 3GP","church_denomination":"Church of England","church_diocese":"Derby","award_qualification":"Registered"}},{"type":"Feature","geometry":{"type":"Point","coordinates":[-1.500091,52.925401]},"properties":{"cartodb_id":184,"church_name":"St Barnabas","address_street":"St Barnabas Church Office","address_line2":"Radbourne Street","address_city":"Derby","address_state_prov":0,"address_postcode":"DE22 3HD","church_denomination":"Anglican","church_diocese":"Derby","award_qualification":"Registered"}},{"type":"Feature","geometry":{"type":"Point","coordinates":[-1.537239,52.913686]},"properties":{"cartodb_id":185,"church_name":"St John the Evangelist","address_street":"Devonshire Drive","address_line2":"Mickleover","address_city":"Derby","address_state_prov":0,"address_postcode":"DE3 9HD","church_denomination":"Anglican","church_diocese":"0","award_qualification":"Registered"}},{"type":"Feature","geometry":{"type":"Point","coordinates":[-1.570964,53.082397]},"properties":{"cartodb_id":186,"church_name":"West Derbyshire United Reformed Church","address_street":"Coldwell Street","address_line2":"Wirksworth","address_city":"Matlock","address_state_prov":0,"address_postcode":"DE4 4FB","church_denomination":"United Reformed Church","church_diocese":"Not Applicable","award_qualification":"Registered"}},{"type":"Feature","geometry":{"type":"Point","coordinates":[-1.427429,53.09756]},"properties":{"cartodb_id":188,"church_name":"All Saints","address_street":"Holm Lane","address_line2":"South Wingfield","address_city":"Alfreton","address_state_prov":0,"address_postcode":"DE55 7NY","church_denomination":"Church of England","church_diocese":"0","award_qualification":"Registered"}},{"type":"Feature","geometry":{"type":"Point","coordinates":[-1.485716,53.026254]},"properties":{"cartodb_id":190,"church_name":"Belper Christ Church","address_street":"Bridge Street","address_line2":"Belper","address_city":"Derbyshire","address_state_prov":0,"address_postcode":"DE56 1BA","church_denomination":"Church of England","church_diocese":"Derby","award_qualification":"Registered"}},{"type":"Feature","geometry":{"type":"Point","coordinates":[-1.479547,53.024717]},"properties":{"cartodb_id":191,"church_name":"Belper St Peter","address_street":"Church Lane","address_line2":"0","address_city":"Belper","address_state_prov":0,"address_postcode":"DE56 1EZ","church_denomination":"Church of England","church_diocese":"Derby","award_qualification":"Registered"}},{"type":"Feature","geometry":{"type":"Point","coordinates":[-1.480549,53.015804]},"properties":{"cartodb_id":192,"church_name":"Belper St Swithun","address_street":"65 Holbrook Road","address_line2":"0","address_city":"Belper","address_state_prov":0,"address_postcode":"DE56 1PA","church_denomination":"Church of England","church_diocese":"Derby","award_qualification":"Registered"}},{"type":"Feature","geometry":{"type":"Point","coordinates":[-1.343739,53.007092]},"properties":{"cartodb_id":193,"church_name":"Marlpool United Reformed Church","address_street":"Chapel Street","address_line2":"Marlpool","address_city":"Heanor","address_state_prov":0,"address_postcode":"DE757NA","church_denomination":"URC","church_diocese":"0","award_qualification":"Registered"}},{"type":"Feature","geometry":{"type":"Point","coordinates":[-1.576024,54.777071]},"properties":{"cartodb_id":194,"church_name":"St Nicholas Church, Durham","address_street":"Market Place,","address_line2":"0","address_city":"Durham","address_state_prov":0,"address_postcode":"DH1 3NJ","church_denomination":"Church of England","church_diocese":"0","award_qualification":"Registered"}},{"type":"Feature","geometry":{"type":"Point","coordinates":[-1.938756,54.387985]},"properties":{"cartodb_id":195,"church_name":"St. Andrew's, Grinton","address_street":"c/o The Vicarage","address_line2":"Reeth, Richmond","address_city":"North Yorkshire","address_state_prov":0,"address_postcode":"DL11 6TR","church_denomination":"Church of England","church_diocese":"0","award_qualification":"Registered"}},{"type":"Feature","geometry":{"type":"Point","coordinates":[-1.574313,54.514463]},"properties":{"cartodb_id":196,"church_name":"All Saints' and Salutation","address_street":"Ravensdale Road","address_line2":"0","address_city":"DARLINGTON","address_state_prov":0,"address_postcode":"DL3 8DT","church_denomination":"Church of England","church_diocese":"0","award_qualification":"Bronze"}},{"type":"Feature","geometry":{"type":"Point","coordinates":[-1.434235,54.338298]},"properties":{"cartodb_id":197,"church_name":"Zion United Reformed Church","address_street":"Zion United Reformed Church","address_line2":"178 High Street,","address_city":"Northallerton, North Yorks","address_state_prov":0,"address_postcode":"DL7 8JZ","church_denomination":"United Reformed Church","church_diocese":"Not Applicable","award_qualification":"Bronze"}},{"type":"Feature","geometry":{"type":"Point","coordinates":[-2.442349,50.714581]},"properties":{"cartodb_id":198,"church_name":"Dorchester Baptist Church","address_street":"Bridport Road","address_line2":"0","address_city":"Dorchester","address_state_prov":0,"address_postcode":"DT1 1RR","church_denomination":"Baptist","church_diocese":"Not Applicable","award_qualification":"Registered"}},{"type":"Feature","geometry":{"type":"Point","coordinates":[-2.445428,50.7092]},"properties":{"cartodb_id":199,"church_name":"St Mary the Virgin","address_street":"Edward Road","address_line2":"0","address_city":"Dorchester","address_state_prov":0,"address_postcode":"DT1 2HL","church_denomination":"Anglican","church_diocese":"Salisbury","award_qualification":"Registered"}},{"type":"Feature","geometry":{"type":"Point","coordinates":[-2.47327,50.775115]},"properties":{"cartodb_id":201,"church_name":"Holy Trinity, Godmanstone","address_street":"Church Lane","address_line2":"Godmanstone","address_city":"Dorchester","address_state_prov":0,"address_postcode":"DT2 7AQ","church_denomination":"Church of England","church_diocese":"Salisbury","award_qualification":"Bronze"}},{"type":"Feature","geometry":{"type":"Point","coordinates":[-3.521608,50.725796]},"properties":{"cartodb_id":224,"church_name":"Belmont Chapel","address_street":"Western Way","address_line2":"0","address_city":"Exeter","address_state_prov":0,"address_postcode":"EX1 2DB","church_denomination":"Independent","church_diocese":"0","award_qualification":"Registered"}},{"type":"Feature","geometry":{"type":"Point","coordinates":[-2.525602,50.838181]},"properties":{"cartodb_id":202,"church_name":"Hilfield Friary","address_street":"Hilfield Friary","address_line2":"0","address_city":"Dorchester","address_state_prov":0,"address_postcode":"DT2 7BE","church_denomination":"Anglican","church_diocese":"0","award_qualification":"Silver"}},{"type":"Feature","geometry":{"type":"Point","coordinates":[-2.390999,50.705493]},"properties":{"cartodb_id":203,"church_name":"St Andrew's West Stafford","address_street":"St Andrew's Church","address_line2":"The Street,  West Stafford","address_city":"Dorchester","address_state_prov":0,"address_postcode":"DT2 8AB","church_denomination":"Anglican","church_diocese":"Salisbury","award_qualification":"Registered"}},{"type":"Feature","geometry":{"type":"Point","coordinates":[-2.499041,50.699307]},"properties":{"cartodb_id":204,"church_name":"St Martin of Tours","address_street":"Martinstown","address_line2":"0","address_city":"Dorchester","address_state_prov":0,"address_postcode":"DT2 9JR","church_denomination":"Anglican","church_diocese":"Salisbury","award_qualification":"Registered"}},{"type":"Feature","geometry":{"type":"Point","coordinates":[-2.731525,50.731866]},"properties":{"cartodb_id":206,"church_name":"St. Mary's Church Walditch","address_street":"c/o Stonecot,","address_line2":"Walditch","address_city":"Bridport","address_state_prov":0,"address_postcode":"DT6 4LQ","church_denomination":"Anglican","church_diocese":"Salisbury","award_qualification":"Registered"}},{"type":"Feature","geometry":{"type":"Point","coordinates":[-2.937369,50.725608]},"properties":{"cartodb_id":207,"church_name":"Lyme Regis Baptist Church","address_street":"Lyme Regis Baptist Church","address_line2":"Silver Street","address_city":"Lyme Regis","address_state_prov":0,"address_postcode":"DT7 3HR","church_denomination":"Baptist","church_diocese":"0","award_qualification":"Silver"}},{"type":"Feature","geometry":{"type":"Point","coordinates":[-2.74063,50.808669]},"properties":{"cartodb_id":209,"church_name":"St Mary's Church, Beaminster","address_street":"Church Street","address_line2":"0","address_city":"Beaminster","address_state_prov":0,"address_postcode":"DT8 3BA","church_denomination":"Church of England","church_diocese":"Salisbury","award_qualification":"Bronze"}},{"type":"Feature","geometry":{"type":"Point","coordinates":[-2.159328,52.361387]},"properties":{"cartodb_id":210,"church_name":"St Cassian's","address_street":"The Village","address_line2":"Chaddesley Corbett","address_city":"Worcestershire","address_state_prov":0,"address_postcode":"DY10 4SD","church_denomination":"Church of England","church_diocese":"Worcester","award_qualification":"Bronze"}},{"type":"Feature","geometry":{"type":"Point","coordinates":[-2.150467,52.458815]},"properties":{"cartodb_id":211,"church_name":"Stourbridge Quakers","address_street":"Friends Meeting House","address_line2":"Scotts Road","address_city":"Stourbridge","address_state_prov":0,"address_postcode":"DY8 1UR","church_denomination":"Quaker","church_diocese":"Not Applicable","award_qualification":"Bronze"}},{"type":"Feature","geometry":{"type":"Point","coordinates":[0.003442,51.57085]},"properties":{"cartodb_id":212,"church_name":"Leytonstone United Free Church","address_street":"55 Wallwood Road","address_line2":"Leytonstone","address_city":"London","address_state_prov":0,"address_postcode":"E11 1AY","church_denomination":"LEP: Baptist &amp; URC","church_diocese":"0","award_qualification":"Registered"}},{"type":"Feature","geometry":{"type":"Point","coordinates":[-0.020239,51.520327]},"properties":{"cartodb_id":214,"church_name":"All Hallows, Bow","address_street":"All Hallows","address_line2":"1 Blackthorn St","address_city":"London","address_state_prov":0,"address_postcode":"E3 3PN","church_denomination":"Anglican","church_diocese":"London","award_qualification":"Bronze"}},{"type":"Feature","geometry":{"type":"Point","coordinates":[0.000115,51.616688]},"properties":{"cartodb_id":216,"church_name":"st. anne's","address_street":"St. Anne's Vicarage","address_line2":"200a Larkshall Road","address_city":"London","address_state_prov":0,"address_postcode":"E4 6NP","church_denomination":"church of England","church_diocese":"0","award_qualification":"Registered"}},{"type":"Feature","geometry":{"type":"Point","coordinates":[-0.082078,51.515518]},